{"type": "FeatureCollection", "features": [{"type": "Feature", "geometry": {"type": "Point", "coordinates": [28.9441, -1.9226]}, "properties": {"name": "Kabulu I", "pop": 2937, "tb": 8, "nns": 1071}}, {"type": "Feature", "geometry": {"type": "Point", "coordinates": [28.7988, -2.2958]}, "properties": {"name": "Kamakombe", "pop": 6144, "tb": 12, "nns": 1446}}, {"type": "Feature", "geometry": {"type": "Point", "coordinates": [27.3916, -2.4406]}, "properties": {"name": "Katchungu", "pop": 924, "tb": 6, "nns": 448}}, {"type": "Feature", "geometry": {"type": "Point", "coordinates": [28.5288, -2.4917]}, "properties": {"name": "Lugerero", "pop": 5672, "tb": 3, "nns": 4685}}, {"type": "Feature", "geometry": {"type": "Point", "coordinates": [27.1774, -2.5147]}, "properties": {"name": "Masanga", "pop": 598, "tb": 3, "nns": 585}}, {"type": "Feature", "geometry": {"type": "Point", "coordinates": [27.6303, -2.5539]}, "properties": {"name": "Byangama", "pop": 580, "tb": 6, "nns": 281}}, {"type": "Feature", "geometry": {"type": "Point", "coordinates": [28.6747, -2.6218]}, "properties": {"name": "Walungu", "pop": 5721, "tb": 3, "nns": 5582}}, {"type": "Feature", "geometry": {"type": "Point", "coordinates": [27.9917, -2.6673]}, "properties": {"name": "Baliga", "pop": 538, "tb": 5, "nns": 281}}, {"type": "Feature", "geometry": {"type": "Point", "coordinates": [27.3464, -2.6931]}, "properties": {"name": "Shabunda", "pop": 3300, "tb": 12, "nns": 791}}, {"type": "Feature", "geometry": {"type": "Point", "coordinates": [28.9199, -2.7011]}, "properties": {"name": "Ibambiro", "pop": 4759, "tb": 7, "nns": 1975}}, {"type": "Feature", "geometry": {"type": "Point", "coordinates": [27.1836, -2.8628]}, "properties": {"name": "Matili", "pop": 1425, "tb": 5, "nns": 761}}, {"type": "Feature", "geometry": {"type": "Point", "coordinates": [27.8687, -2.9796]}, "properties": {"name": "Kolula", "pop": 308, "tb": 2, "nns": 325}}, {"type": "Feature", "geometry": {"type": "Point", "coordinates": [28.1985, -3.0425]}, "properties": {"name": "Kalingi", "pop": 7608, "tb": 68, "nns": 331}}, {"type": "Feature", "geometry": {"type": "Point", "coordinates": [27.1849, -3.2293]}, "properties": {"name": "Kikamba", "pop": 669, "tb": 2, "nns": 798}}, {"type": "Feature", "geometry": {"type": "Point", "coordinates": [27.8713, -3.3879]}, "properties": {"name": "Lugushwa", "pop": 7459, "tb": 64, "nns": 345}}, {"type": "Feature", "geometry": {"type": "Point", "coordinates": [28.891, -3.2056]}, "properties": {"name": "Kitembe", "pop": 854, "tb": 2, "nns": 1187}}, {"type": "Feature", "geometry": {"type": "Point", "coordinates": [28.7795, -3.2821]}, "properties": {"name": "Kichombo I", "pop": 869, "tb": 4, "nns": 633}}]}