{"type": "FeatureCollection", "features": [{"type": "Feature", "geometry": {"type": "Point", "coordinates": [30.059391, -1.937517]}, "properties": {"name": "A La Source"}}, {"type": "Feature", "geometry": {"type": "Point", "coordinates": [30.099063, -1.937141]}, "properties": {"name": "Ada Dental"}}, {"type": "Feature", "geometry": {"type": "Point", "coordinates": [30.07741, -1.944559]}, "properties": {"name": "Afak"}}, {"type": "Feature", "geometry": {"type": "Point", "coordinates": [30.031933, -1.945152]}, "properties": {"name": "Afya"}}, {"type": "Feature", "geometry": {"type": "Point", "coordinates": [29.730197, -2.732554]}, "properties": {"name": "Agahabwa"}}, {"type": "Feature", "geometry": {"type": "Point", "coordinates": [30.050509, -1.975541]}, "properties": {"name": "AHA Clinic"}}, {"type": "Feature", "geometry": {"type": "Point", "coordinates": [30.359418, -2.141382]}, "properties": {"name": "Akabungo"}}, {"type": "Feature", "geometry": {"type": "Point", "coordinates": [30.499201, -2.123056]}, "properties": {"name": "Akagarama"}}, {"type": "Feature", "geometry": {"type": "Point", "coordinates": [30.158045, -1.972611]}, "properties": {"name": "Amizero"}}, {"type": "Feature", "geometry": {"type": "Point", "coordinates": [30.049679, -1.938149]}, "properties": {"name": "Amizero Iwacu"}}, {"type": "Feature", "geometry": {"type": "Point", "coordinates": [30.097834, -1.967532]}, "properties": {"name": "Apade Clin"}}, {"type": "Feature", "geometry": {"type": "Point", "coordinates": [30.060089, -1.93953]}, "properties": {"name": "Arbef Muhima"}}, {"type": "Feature", "geometry": {"type": "Point", "coordinates": [29.41216, -1.67395]}, "properties": {"name": "Arusha"}}, {"type": "Feature", "geometry": {"type": "Point", "coordinates": [30.050085, -1.983652]}, "properties": {"name": "Aurore"}}, {"type": "Feature", "geometry": {"type": "Point", "coordinates": [30.441551, -1.948258]}, "properties": {"name": "Avega"}}, {"type": "Feature", "geometry": {"type": "Point", "coordinates": [30.10683, -1.958583]}, "properties": {"name": "Avega Kigali"}}, {"type": "Feature", "geometry": {"type": "Point", "coordinates": [30.101664, -1.937682]}, "properties": {"name": "Baho International Hospital"}}, {"type": "Feature", "geometry": {"type": "Point", "coordinates": [29.202191, -2.44192]}, "properties": {"name": "Banda"}}, {"type": "Feature", "geometry": {"type": "Point", "coordinates": [30.258341, -2.305189]}, "properties": {"name": "Batima"}}, {"type": "Feature", "geometry": {"type": "Point", "coordinates": [30.077011, -1.901554]}, "properties": {"name": "Batsinda"}}, {"type": "Feature", "geometry": {"type": "Point", "coordinates": [30.10209, -1.975457]}, "properties": {"name": "Betsaida"}}, {"type": "Feature", "geometry": {"type": "Point", "coordinates": [30.344806, -2.070411]}, "properties": {"name": "Bicaca"}}, {"type": "Feature", "geometry": {"type": "Point", "coordinates": [30.061645, -1.941102]}, "properties": {"name": "Bien Naitre"}}, {"type": "Feature", "geometry": {"type": "Point", "coordinates": [29.42365, -1.62445]}, "properties": {"name": "Bigogwe"}}, {"type": "Feature", "geometry": {"type": "Point", "coordinates": [29.372437, -2.181731]}, "properties": {"name": "Bigugu"}}, {"type": "Feature", "geometry": {"type": "Point", "coordinates": [29.48918, -2.222833]}, "properties": {"name": "Biguhu"}}, {"type": "Feature", "geometry": {"type": "Point", "coordinates": [30.140252, -2.417874]}, "properties": {"name": "Biharagu"}}, {"type": "Feature", "geometry": {"type": "Point", "coordinates": [30.058095, -1.947816]}, "properties": {"name": "Biolab"}}, {"type": "Feature", "geometry": {"type": "Point", "coordinates": [29.525822, -2.144593]}, "properties": {"name": "Birambo"}}, {"type": "Feature", "geometry": {"type": "Point", "coordinates": [29.745486, -1.76785]}, "properties": {"name": "Birehe"}}, {"type": "Feature", "geometry": {"type": "Point", "coordinates": [29.52505, -1.691717]}, "properties": {"name": "Birembo"}}, {"type": "Feature", "geometry": {"type": "Point", "coordinates": [29.31639, -1.8516]}, "properties": {"name": "Biruyi"}}, {"type": "Feature", "geometry": {"type": "Point", "coordinates": [29.76888, -1.470626]}, "properties": {"name": "Birwa"}}, {"type": "Feature", "geometry": {"type": "Point", "coordinates": [30.05995, -1.96695]}, "properties": {"name": "Biryogo"}}, {"type": "Feature", "geometry": {"type": "Point", "coordinates": [29.52522, -1.455817]}, "properties": {"name": "Bisate"}}, {"type": "Feature", "geometry": {"type": "Point", "coordinates": [29.335795, -2.177784]}, "properties": {"name": "Bisesero"}}, {"type": "Feature", "geometry": {"type": "Point", "coordinates": [29.862205, -1.959206]}, "properties": {"name": "Bitare"}}, {"type": "Feature", "geometry": {"type": "Point", "coordinates": [29.40968, -1.847688]}, "properties": {"name": "Bitenga"}}, {"type": "Feature", "geometry": {"type": "Point", "coordinates": [30.059654, -1.940877]}, "properties": {"name": "BMC"}}, {"type": "Feature", "geometry": {"type": "Point", "coordinates": [30.093986, -1.970304]}, "properties": {"name": "Bralirwa"}}, {"type": "Feature", "geometry": {"type": "Point", "coordinates": [30.028156, -1.841816]}, "properties": {"name": "Bubangu"}}, {"type": "Feature", "geometry": {"type": "Point", "coordinates": [30.30801, -1.162845]}, "properties": {"name": "Bubare"}}, {"type": "Feature", "geometry": {"type": "Point", "coordinates": [29.4323, -2.07275]}, "properties": {"name": "Bubazi"}}, {"type": "Feature", "geometry": {"type": "Point", "coordinates": [29.801984, -1.872369]}, "properties": {"name": "Budende"}}, {"type": "Feature", "geometry": {"type": "Point", "coordinates": [30.49584, -2.024822]}, "properties": {"name": "Bugambira"}}, {"type": "Feature", "geometry": {"type": "Point", "coordinates": [30.4123, -1.290733]}, "properties": {"name": "Bugaragara"}}, {"type": "Feature", "geometry": {"type": "Point", "coordinates": [29.488266, -2.453816]}, "properties": {"name": "Bugarama"}}, {"type": "Feature", "geometry": {"type": "Point", "coordinates": [29.26688, -1.91751]}, "properties": {"name": "Bugarura"}}, {"type": "Feature", "geometry": {"type": "Point", "coordinates": [30.091283, -2.147195]}, "properties": {"name": "Bugesera"}}, {"type": "Feature", "geometry": {"type": "Point", "coordinates": [29.36765, -1.53776]}, "properties": {"name": "Bugeshi"}}, {"type": "Feature", "geometry": {"type": "Point", "coordinates": [29.921503, -1.90572]}, "properties": {"name": "Bugoba"}}, {"type": "Feature", "geometry": {"type": "Point", "coordinates": [30.546056, -1.70525]}, "properties": {"name": "Buhabwa"}}, {"type": "Feature", "geometry": {"type": "Point", "coordinates": [29.806, -1.669215]}, "properties": {"name": "Buheta"}}, {"type": "Feature", "geometry": {"type": "Point", "coordinates": [29.282945, -1.792129]}, "properties": {"name": "Buhoko"}}, {"type": "Feature", "geometry": {"type": "Point", "coordinates": [29.518392, -2.524273]}, "properties": {"name": "Buhoro"}}, {"type": "Feature", "geometry": {"type": "Point", "coordinates": [29.370764, -1.753808]}, "properties": {"name": "Bukanda"}}, {"type": "Feature", "geometry": {"type": "Point", "coordinates": [30.78652, -2.308883]}, "properties": {"name": "Bukora"}}, {"type": "Feature", "geometry": {"type": "Point", "coordinates": [29.89321, -1.77121]}, "properties": {"name": "Bumba"}}, {"type": "Feature", "geometry": {"type": "Point", "coordinates": [30.15384, -1.85979]}, "properties": {"name": "Bumbogo"}}, {"type": "Feature", "geometry": {"type": "Point", "coordinates": [29.97285, -1.50316]}, "properties": {"name": "Bungwe"}}, {"type": "Feature", "geometry": {"type": "Point", "coordinates": [29.764593, -2.203534]}, "properties": {"name": "Bunyogombe"}}, {"type": "Feature", "geometry": {"type": "Point", "coordinates": [29.842455, -1.963819]}, "properties": {"name": "Bunyonga"}}, {"type": "Feature", "geometry": {"type": "Point", "coordinates": [29.71617, -1.9663]}, "properties": {"name": "Buramba"}}, {"type": "Feature", "geometry": {"type": "Point", "coordinates": [30.03385, -1.736744]}, "properties": {"name": "Burega"}}, {"type": "Feature", "geometry": {"type": "Point", "coordinates": [30.118064, -2.406889]}, "properties": {"name": "Burenge"}}, {"type": "Feature", "geometry": {"type": "Point", "coordinates": [29.836185, -1.492633]}, "properties": {"name": "Burera"}}, {"type": "Feature", "geometry": {"type": "Point", "coordinates": [29.387474, -1.529154]}, "properties": {"name": "Buringo"}}, {"type": "Feature", "geometry": {"type": "Point", "coordinates": [29.411779, -2.426476]}, "properties": {"name": "Buruhukiro"}}, {"type": "Feature", "geometry": {"type": "Point", "coordinates": [30.14957, -1.980117]}, "properties": {"name": "Busanza"}}, {"type": "Feature", "geometry": {"type": "Point", "coordinates": [29.34488, -1.6041]}, "properties": {"name": "Busasamana"}}, {"type": "Feature", "geometry": {"type": "Point", "coordinates": [29.70117, -1.624667]}, "properties": {"name": "Busengo"}}, {"type": "Feature", "geometry": {"type": "Point", "coordinates": [30.076123, -1.527556]}, "properties": {"name": "Bushara"}}, {"type": "Feature", "geometry": {"type": "Point", "coordinates": [28.9858, -2.4451]}, "properties": {"name": "Bushenge"}}, {"type": "Feature", "geometry": {"type": "Point", "coordinates": [29.968402, -1.476176]}, "properties": {"name": "Bushenya"}}, {"type": "Feature", "geometry": {"type": "Point", "coordinates": [29.73607, -1.59675]}, "properties": {"name": "Bushoka"}}, {"type": "Feature", "geometry": {"type": "Point", "coordinates": [29.29313, -1.63897]}, "properties": {"name": "Busigari"}}, {"type": "Feature", "geometry": {"type": "Point", "coordinates": [29.54021, -1.554483]}, "properties": {"name": "Busogo"}}, {"type": "Feature", "geometry": {"type": "Point", "coordinates": [29.819402, -1.989316]}, "properties": {"name": "Busoro"}}, {"type": "Feature", "geometry": {"type": "Point", "coordinates": [29.69302, -2.665483]}, "properties": {"name": "Busoro-Gishamvu"}}, {"type": "Feature", "geometry": {"type": "Point", "coordinates": [30.02367, -2.025533]}, "properties": {"name": "Butamwa"}}, {"type": "Feature", "geometry": {"type": "Point", "coordinates": [29.779893, -2.283828]}, "properties": {"name": "Butansinda"}}, {"type": "Feature", "geometry": {"type": "Point", "coordinates": [29.80092, -2.320084]}, "properties": {"name": "Butara"}}, {"type": "Feature", "geometry": {"type": "Point", "coordinates": [29.719014, -1.708998]}, "properties": {"name": "Butare"}}, {"type": "Feature", "geometry": {"type": "Point", "coordinates": [29.7352, -2.612]}, "properties": {"name": "Butare CHUB"}}, {"type": "Feature", "geometry": {"type": "Point", "coordinates": [29.8366, -1.4089]}, "properties": {"name": "Butaro"}}, {"type": "Feature", "geometry": {"type": "Point", "coordinates": [29.44905, -2.289147]}, "properties": {"name": "Buteteri"}}, {"type": "Feature", "geometry": {"type": "Point", "coordinates": [30.01274, -1.694167]}, "properties": {"name": "Buyoga"}}, {"type": "Feature", "geometry": {"type": "Point", "coordinates": [30.04454, -1.866296]}, "properties": {"name": "Bweramvura"}}, {"type": "Feature", "geometry": {"type": "Point", "coordinates": [29.21397, -2.61795]}, "properties": {"name": "Bweyeye"}}, {"type": "Feature", "geometry": {"type": "Point", "coordinates": [30.15427, -1.579583]}, "properties": {"name": "Bwisige"}}, {"type": "Feature", "geometry": {"type": "Point", "coordinates": [29.775527, -2.680334]}, "properties": {"name": "Bwiza"}}, {"type": "Feature", "geometry": {"type": "Point", "coordinates": [29.26458, -1.66303]}, "properties": {"name": "Byahi"}}, {"type": "Feature", "geometry": {"type": "Point", "coordinates": [29.74342, -2.1576]}, "properties": {"name": "Byimana"}}, {"type": "Feature", "geometry": {"type": "Point", "coordinates": [30.0558, -1.58875]}, "properties": {"name": "Byumba"}}, {"type": "Feature", "geometry": {"type": "Point", "coordinates": [30.058711, -1.947141]}, "properties": {"name": "Cabinet M\u00e9d Pediatrie"}}, {"type": "Feature", "geometry": {"type": "Point", "coordinates": [30.059137, -1.949225]}, "properties": {"name": "Cabinet Medical Soins Pour Tous"}}, {"type": "Feature", "geometry": {"type": "Point", "coordinates": [30.075665, -1.598525]}, "properties": {"name": "Camp Gihembe"}}, {"type": "Feature", "geometry": {"type": "Point", "coordinates": [30.169, -1.9547]}, "properties": {"name": "Caraes Ndera"}}, {"type": "Feature", "geometry": {"type": "Point", "coordinates": [30.088474, -1.967473]}, "properties": {"name": "Carrefour Clin"}}, {"type": "Feature", "geometry": {"type": "Point", "coordinates": [30.046862, -1.978675]}, "properties": {"name": "Centre Cult Islamique"}}, {"type": "Feature", "geometry": {"type": "Point", "coordinates": [30.081488, -1.971295]}, "properties": {"name": "Centre Dushishoze - Transit"}}, {"type": "Feature", "geometry": {"type": "Point", "coordinates": [30.080186, -1.976881]}, "properties": {"name": "Centre Dushishoze AGR"}}, {"type": "Feature", "geometry": {"type": "Point", "coordinates": [29.736267, -2.60982]}, "properties": {"name": "Centre Dushishoze Huye"}}, {"type": "Feature", "geometry": {"type": "Point", "coordinates": [29.651461, -1.490835]}, "properties": {"name": "Centre Dushishoze Musanze"}}, {"type": "Feature", "geometry": {"type": "Point", "coordinates": [30.55351, -2.1397]}, "properties": {"name": "Centre Dushishoze Ngoma"}}, {"type": "Feature", "geometry": {"type": "Point", "coordinates": [29.350693, -1.884611]}, "properties": {"name": "Centre Dushishoze Rutsiro"}}, {"type": "Feature", "geometry": {"type": "Point", "coordinates": [30.060728, -1.954964]}, "properties": {"name": "Centre M\u00e9dical Baho"}}, {"type": "Feature", "geometry": {"type": "Point", "coordinates": [30.066569, -1.951412]}, "properties": {"name": "Centre M\u00e9dical Bnr"}}, {"type": "Feature", "geometry": {"type": "Point", "coordinates": [30.058617, -1.946335]}, "properties": {"name": "Centre M\u00e9dical Chinois"}}, {"type": "Feature", "geometry": {"type": "Point", "coordinates": [30.108804, -1.959187]}, "properties": {"name": "Centre M\u00e9dical Orkide"}}, {"type": "Feature", "geometry": {"type": "Point", "coordinates": [30.093101, -1.936278]}, "properties": {"name": "Centre M\u00e9dical SOS"}}, {"type": "Feature", "geometry": {"type": "Point", "coordinates": [30.057833, -1.968505]}, "properties": {"name": "Chinoise"}}, {"type": "Feature", "geometry": {"type": "Point", "coordinates": [30.0604, -1.9565]}, "properties": {"name": "CHUK"}}, {"type": "Feature", "geometry": {"type": "Point", "coordinates": [29.01875, -2.610967]}, "properties": {"name": "Cimerwa"}}, {"type": "Feature", "geometry": {"type": "Point", "coordinates": [30.064672, -1.944792]}, "properties": {"name": "Clinique Medicale Prive"}}, {"type": "Feature", "geometry": {"type": "Point", "coordinates": [30.05589, -1.971747]}, "properties": {"name": "Club Rafiki YFC"}}, {"type": "Feature", "geometry": {"type": "Point", "coordinates": [29.82263, -1.764717]}, "properties": {"name": "Coko"}}, {"type": "Feature", "geometry": {"type": "Point", "coordinates": [30.13269, -1.982071]}, "properties": {"name": "Consolari"}}, {"type": "Feature", "geometry": {"type": "Point", "coordinates": [30.04825, -1.94545]}, "properties": {"name": "Cor-Unum"}}, {"type": "Feature", "geometry": {"type": "Point", "coordinates": [29.386, -1.9641]}, "properties": {"name": "Crete Congo Nil"}}, {"type": "Feature", "geometry": {"type": "Point", "coordinates": [29.820325, -1.866831]}, "properties": {"name": "Cubi"}}, {"type": "Feature", "geometry": {"type": "Point", "coordinates": [30.029916, -1.516258]}, "properties": {"name": "Cuminicyenda I"}}, {"type": "Feature", "geometry": {"type": "Point", "coordinates": [29.74143, -2.60465]}, "properties": {"name": "CUSP Butare"}}, {"type": "Feature", "geometry": {"type": "Point", "coordinates": [29.661331, -1.504394]}, "properties": {"name": "Cyabararika"}}, {"type": "Feature", "geometry": {"type": "Point", "coordinates": [30.2951, -1.3957]}, "properties": {"name": "Cyabayaga"}}, {"type": "Feature", "geometry": {"type": "Point", "coordinates": [29.68815, -1.585417]}, "properties": {"name": "Cyabingo"}}, {"type": "Feature", "geometry": {"type": "Point", "coordinates": [29.60907, -2.740867]}, "properties": {"name": "Cyahinda"}}, {"type": "Feature", "geometry": {"type": "Point", "coordinates": [30.619441, -2.215509]}, "properties": {"name": "Cyamigurwa"}}, {"type": "Feature", "geometry": {"type": "Point", "coordinates": [30.218795, -1.715318]}, "properties": {"name": "Cyamuhinda"}}, {"type": "Feature", "geometry": {"type": "Point", "coordinates": [30.201639, -1.654488]}, "properties": {"name": "Cyandaro"}}, {"type": "Feature", "geometry": {"type": "Point", "coordinates": [29.611676, -1.665188]}, "properties": {"name": "Cyanika"}}, {"type": "Feature", "geometry": {"type": "Point", "coordinates": [29.297213, -2.156005]}, "properties": {"name": "Cyanya"}}, {"type": "Feature", "geometry": {"type": "Point", "coordinates": [29.811925, -2.142727]}, "properties": {"name": "Cyanza"}}, {"type": "Feature", "geometry": {"type": "Point", "coordinates": [29.320003, -1.622422]}, "properties": {"name": "Cyanzarwe"}}, {"type": "Feature", "geometry": {"type": "Point", "coordinates": [29.71435, -2.385867]}, "properties": {"name": "Cyaratsi"}}, {"type": "Feature", "geometry": {"type": "Point", "coordinates": [30.63772, -2.02045]}, "properties": {"name": "Cyarubare"}}, {"type": "Feature", "geometry": {"type": "Point", "coordinates": [29.701451, -2.299772]}, "properties": {"name": "Cyerezo"}}, {"type": "Feature", "geometry": {"type": "Point", "coordinates": [29.96953, -2.187367]}, "properties": {"name": "Cyeru"}}, {"type": "Feature", "geometry": {"type": "Point", "coordinates": [29.79763, -2.018264]}, "properties": {"name": "Cyeza"}}, {"type": "Feature", "geometry": {"type": "Point", "coordinates": [28.957631, -2.410668]}, "properties": {"name": "Cyibumba"}}, {"type": "Feature", "geometry": {"type": "Point", "coordinates": [29.29258, -1.82775]}, "properties": {"name": "Cyimbili"}}, {"type": "Feature", "geometry": {"type": "Point", "coordinates": [28.973185, -2.583199]}, "properties": {"name": "Cyingwa"}}, {"type": "Feature", "geometry": {"type": "Point", "coordinates": [29.632439, -1.541207]}, "properties": {"name": "Cyivugiza"}}, {"type": "Feature", "geometry": {"type": "Point", "coordinates": [30.12055, -1.440617]}, "properties": {"name": "Cyondo"}}, {"type": "Feature", "geometry": {"type": "Point", "coordinates": [29.832086, -2.411641]}, "properties": {"name": "Cyotamakara"}}, {"type": "Feature", "geometry": {"type": "Point", "coordinates": [30.026661, -1.865829]}, "properties": {"name": "Cyuga"}}, {"type": "Feature", "geometry": {"type": "Point", "coordinates": [30.041377, -2.116197]}, "properties": {"name": "Cyugaro"}}, {"type": "Feature", "geometry": {"type": "Point", "coordinates": [30.004856, -1.482377]}, "properties": {"name": "Cyumba"}}, {"type": "Feature", "geometry": {"type": "Point", "coordinates": [30.11389, -1.953057]}, "properties": {"name": "Doctor's Plaza"}}, {"type": "Feature", "geometry": {"type": "Point", "coordinates": [30.049044, -1.970236]}, "properties": {"name": "Don De Dieu"}}, {"type": "Feature", "geometry": {"type": "Point", "coordinates": [30.1065, -1.95835]}, "properties": {"name": "Dr Agarwal's Eye Hosp"}}, {"type": "Feature", "geometry": {"type": "Point", "coordinates": [30.047444, -1.977656]}, "properties": {"name": "Dufatanye"}}, {"type": "Feature", "geometry": {"type": "Point", "coordinates": [30.046306, -1.924096]}, "properties": {"name": "Dutabarane"}}, {"type": "Feature", "geometry": {"type": "Point", "coordinates": [30.073616, -1.967358]}, "properties": {"name": "Dutabarane Ltd"}}, {"type": "Feature", "geometry": {"type": "Point", "coordinates": [29.764082, -2.595344]}, "properties": {"name": "Duwane"}}, {"type": "Feature", "geometry": {"type": "Point", "coordinates": [30.059996, -1.950027]}, "properties": {"name": "Faith Clinic"}}, {"type": "Feature", "geometry": {"type": "Point", "coordinates": [30.294634, -1.871979]}, "properties": {"name": "Fumbwe"}}, {"type": "Feature", "geometry": {"type": "Point", "coordinates": [29.272606, -2.195264]}, "properties": {"name": "Gabiro"}}, {"type": "Feature", "geometry": {"type": "Point", "coordinates": [29.264324, -1.679401]}, "properties": {"name": "Gacuba II"}}, {"type": "Feature", "geometry": {"type": "Point", "coordinates": [30.1043, -2.0276]}, "properties": {"name": "Gahanga"}}, {"type": "Feature", "geometry": {"type": "Point", "coordinates": [30.50427, -2.3345]}, "properties": {"name": "Gahara"}}, {"type": "Feature", "geometry": {"type": "Point", "coordinates": [30.322076, -1.970454]}, "properties": {"name": "Gahengeli"}}, {"type": "Feature", "geometry": {"type": "Point", "coordinates": [30.4832, -1.8407]}, "properties": {"name": "Gahini"}}, {"type": "Feature", "geometry": {"type": "Point", "coordinates": [29.751328, -2.087757]}, "properties": {"name": "Gahogo"}}, {"type": "Feature", "geometry": {"type": "Point", "coordinates": [29.82238, -2.293192]}, "properties": {"name": "Gahombo"}}, {"type": "Feature", "geometry": {"type": "Point", "coordinates": [29.768674, -2.36986]}, "properties": {"name": "Gahondo"}}, {"type": "Feature", "geometry": {"type": "Point", "coordinates": [29.700117, -1.45011]}, "properties": {"name": "Gahunga"}}, {"type": "Feature", "geometry": {"type": "Point", "coordinates": [30.483664, -1.203011]}, "properties": {"name": "Gakagati"}}, {"type": "Feature", "geometry": {"type": "Point", "coordinates": [30.157244, -2.186787]}, "properties": {"name": "Gakamba"}}, {"type": "Feature", "geometry": {"type": "Point", "coordinates": [29.786509, -1.638612]}, "properties": {"name": "Gakenke"}}, {"type": "Feature", "geometry": {"type": "Point", "coordinates": [29.90566, -2.268659]}, "properties": {"name": "Gako"}}, {"type": "Feature", "geometry": {"type": "Point", "coordinates": [30.571248, -1.669301]}, "properties": {"name": "Gakoma"}}, {"type": "Feature", "geometry": {"type": "Point", "coordinates": [30.415185, -1.8234]}, "properties": {"name": "Gakoni"}}, {"type": "Feature", "geometry": {"type": "Point", "coordinates": [29.698581, -1.478437]}, "properties": {"name": "Gakoro"}}, {"type": "Feature", "geometry": {"type": "Point", "coordinates": [30.02538, -2.185366]}, "properties": {"name": "Gakurazo"}}, {"type": "Feature", "geometry": {"type": "Point", "coordinates": [30.147665, -1.800104]}, "properties": {"name": "Gasabo"}}, {"type": "Feature", "geometry": {"type": "Point", "coordinates": [29.779373, -1.833524]}, "properties": {"name": "Gasagara"}}, {"type": "Feature", "geometry": {"type": "Point", "coordinates": [29.703681, -1.512359]}, "properties": {"name": "Gasakuza"}}, {"type": "Feature", "geometry": {"type": "Point", "coordinates": [30.297181, -1.809288]}, "properties": {"name": "Gasange"}}, {"type": "Feature", "geometry": {"type": "Point", "coordinates": [30.098281, -1.880207]}, "properties": {"name": "Gasanze"}}, {"type": "Feature", "geometry": {"type": "Point", "coordinates": [30.606584, -1.893726]}, "properties": {"name": "Gasarabwayi"}}, {"type": "Feature", "geometry": {"type": "Point", "coordinates": [29.68414, -1.972742]}, "properties": {"name": "Gasave"}}, {"type": "Feature", "geometry": {"type": "Point", "coordinates": [29.054412, -2.516111]}, "properties": {"name": "Gasayo"}}, {"type": "Feature", "geometry": {"type": "Point", "coordinates": [29.893592, -1.562239]}, "properties": {"name": "Gaseke"}}, {"type": "Feature", "geometry": {"type": "Point", "coordinates": [30.508182, -2.07045]}, "properties": {"name": "Gasetsa"}}, {"type": "Feature", "geometry": {"type": "Point", "coordinates": [29.750416, -1.540233]}, "properties": {"name": "Gashaki"}}, {"type": "Feature", "geometry": {"type": "Point", "coordinates": [30.464781, -2.178892]}, "properties": {"name": "Gashanda"}}, {"type": "Feature", "geometry": {"type": "Point", "coordinates": [29.889587, -1.436529]}, "properties": {"name": "Gashanje"}}, {"type": "Feature", "geometry": {"type": "Point", "coordinates": [29.418573, -2.23726]}, "properties": {"name": "Gasharu"}}, {"type": "Feature", "geometry": {"type": "Point", "coordinates": [29.01139, -2.491991]}, "properties": {"name": "Gashashi"}}, {"type": "Feature", "geometry": {"type": "Point", "coordinates": [30.55071, -2.317867]}, "properties": {"name": "Gashongora"}}, {"type": "Feature", "geometry": {"type": "Point", "coordinates": [29.649281, -1.762343]}, "properties": {"name": "Gashonyi"}}, {"type": "Feature", "geometry": {"type": "Point", "coordinates": [30.24503, -2.205534]}, "properties": {"name": "Gashora"}}, {"type": "Feature", "geometry": {"type": "Point", "coordinates": [29.675913, -1.810854]}, "properties": {"name": "Gashorera"}}, {"type": "Feature", "geometry": {"type": "Point", "coordinates": [29.549969, -1.976086]}, "properties": {"name": "Gashubi"}}, {"type": "Feature", "geometry": {"type": "Point", "coordinates": [29.725957, -1.397879]}, "properties": {"name": "Gasiza"}}, {"type": "Feature", "geometry": {"type": "Point", "coordinates": [30.184417, -1.972446]}, "properties": {"name": "Gasogi"}}, {"type": "Feature", "geometry": {"type": "Point", "coordinates": [29.677416, -1.912524]}, "properties": {"name": "Gasovu"}}, {"type": "Feature", "geometry": {"type": "Point", "coordinates": [29.122937, -2.579245]}, "properties": {"name": "Gasumo"}}, {"type": "Feature", "geometry": {"type": "Point", "coordinates": [29.540276, -1.648548]}, "properties": {"name": "Gatagara"}}, {"type": "Feature", "geometry": {"type": "Point", "coordinates": [30.049932, -2.317139]}, "properties": {"name": "Gatanga"}}, {"type": "Feature", "geometry": {"type": "Point", "coordinates": [29.557669, -1.534989]}, "properties": {"name": "Gataraga"}}, {"type": "Feature", "geometry": {"type": "Point", "coordinates": [29.783453, -1.558435]}, "properties": {"name": "Gatare"}}, {"type": "Feature", "geometry": {"type": "Point", "coordinates": [29.951519, -1.524887]}, "properties": {"name": "Gatebe"}}, {"type": "Feature", "geometry": {"type": "Point", "coordinates": [30.090641, -1.978957]}, "properties": {"name": "Gatenga"}}, {"type": "Feature", "geometry": {"type": "Point", "coordinates": [30.229524, -1.766019]}, "properties": {"name": "Gatobotobo"}}, {"type": "Feature", "geometry": {"type": "Point", "coordinates": [30.077374, -1.409788]}, "properties": {"name": "Gatoma"}}, {"type": "Feature", "geometry": {"type": "Point", "coordinates": [29.6649, -1.658733]}, "properties": {"name": "Gatonde"}}, {"type": "Feature", "geometry": {"type": "Point", "coordinates": [30.585961, -2.276198]}, "properties": {"name": "Gatore"}}, {"type": "Feature", "geometry": {"type": "Point", "coordinates": [29.763088, -2.732446]}, "properties": {"name": "Gatovu"}}, {"type": "Feature", "geometry": {"type": "Point", "coordinates": [30.042539, -1.939332]}, "properties": {"name": "Gatsata 1"}}, {"type": "Feature", "geometry": {"type": "Point", "coordinates": [30.046488, -1.9172]}, "properties": {"name": "Gatsata 2"}}, {"type": "Feature", "geometry": {"type": "Point", "coordinates": [30.388399, -1.624547]}, "properties": {"name": "Gatsibo"}}, {"type": "Feature", "geometry": {"type": "Point", "coordinates": [29.652113, -1.928288]}, "properties": {"name": "Gatumba"}}, {"type": "Feature", "geometry": {"type": "Point", "coordinates": [30.012106, -1.427036]}, "properties": {"name": "Gatuna"}}, {"type": "Feature", "geometry": {"type": "Point", "coordinates": [29.301898, -1.730531]}, "properties": {"name": "Gatyazo"}}, {"type": "Feature", "geometry": {"type": "Point", "coordinates": [30.257864, -1.888677]}, "properties": {"name": "Gicaca"}}, {"type": "Feature", "geometry": {"type": "Point", "coordinates": [30.059666, -1.583624]}, "properties": {"name": "Gicumbi"}}, {"type": "Feature", "geometry": {"type": "Point", "coordinates": [29.962304, -1.943977]}, "properties": {"name": "Gihara"}}, {"type": "Feature", "geometry": {"type": "Point", "coordinates": [28.888877, -2.443815]}, "properties": {"name": "Gihaya"}}, {"type": "Feature", "geometry": {"type": "Point", "coordinates": [28.970864, -2.474494]}, "properties": {"name": "Giheke"}}, {"type": "Feature", "geometry": {"type": "Point", "coordinates": [30.00759, -2.270617]}, "properties": {"name": "Gihinga"}}, {"type": "Feature", "geometry": {"type": "Point", "coordinates": [30.0462, -1.9058]}, "properties": {"name": "Gihogwe"}}, {"type": "Feature", "geometry": {"type": "Point", "coordinates": [29.422877, -1.578351]}, "properties": {"name": "Gihorwe"}}, {"type": "Feature", "geometry": {"type": "Point", "coordinates": [28.91482, -2.483283]}, "properties": {"name": "Gihundwe"}}, {"type": "Feature", "geometry": {"type": "Point", "coordinates": [30.554288, -1.593139]}, "properties": {"name": "Gikobwa"}}, {"type": "Feature", "geometry": {"type": "Point", "coordinates": [29.719357, -1.748453]}, "properties": {"name": "Gikombe"}}, {"type": "Feature", "geometry": {"type": "Point", "coordinates": [29.675067, -2.058025]}, "properties": {"name": "Gikomero"}}, {"type": "Feature", "geometry": {"type": "Point", "coordinates": [30.21876, -1.88732]}, "properties": {"name": "Gikomero II"}}, {"type": "Feature", "geometry": {"type": "Point", "coordinates": [30.07949, -1.97749]}, "properties": {"name": "Gikondo"}}, {"type": "Feature", "geometry": {"type": "Point", "coordinates": [29.85523, -2.484067]}, "properties": {"name": "Gikonko"}}, {"type": "Feature", "geometry": {"type": "Point", "coordinates": [29.79413, -2.732883]}, "properties": {"name": "Gikore"}}, {"type": "Feature", "geometry": {"type": "Point", "coordinates": [30.084027, -2.313365]}, "properties": {"name": "Gikundamvura"}}, {"type": "Feature", "geometry": {"type": "Point", "coordinates": [30.093578, -1.976508]}, "properties": {"name": "Giraneza"}}, {"type": "Feature", "geometry": {"type": "Point", "coordinates": [30.055533, -1.963168]}, "properties": {"name": "Girimpundu"}}, {"type": "Feature", "geometry": {"type": "Point", "coordinates": [30.054593, -1.960901]}, "properties": {"name": "Girubuzima"}}, {"type": "Feature", "geometry": {"type": "Point", "coordinates": [30.126414, -1.948863]}, "properties": {"name": "Girumpuhwe"}}, {"type": "Feature", "geometry": {"type": "Point", "coordinates": [29.275958, -1.689987]}, "properties": {"name": "Gisa"}}, {"type": "Feature", "geometry": {"type": "Point", "coordinates": [29.830635, -2.593288]}, "properties": {"name": "Gisagara"}}, {"type": "Feature", "geometry": {"type": "Point", "coordinates": [29.684064, -2.485381]}, "properties": {"name": "Gisakura"}}, {"type": "Feature", "geometry": {"type": "Point", "coordinates": [29.896809, -2.169361]}, "properties": {"name": "Gisali"}}, {"type": "Feature", "geometry": {"type": "Point", "coordinates": [29.814409, -2.114527]}, "properties": {"name": "Gisanga"}}, {"type": "Feature", "geometry": {"type": "Point", "coordinates": [29.45258, -2.772319]}, "properties": {"name": "Gisanze"}}, {"type": "Feature", "geometry": {"type": "Point", "coordinates": [29.851847, -2.397957]}, "properties": {"name": "Gisasa"}}, {"type": "Feature", "geometry": {"type": "Point", "coordinates": [29.2623, -1.7021]}, "properties": {"name": "Gisenyi"}}, {"type": "Feature", "geometry": {"type": "Point", "coordinates": [29.990793, -1.497312]}, "properties": {"name": "Gishambashayo"}}, {"type": "Feature", "geometry": {"type": "Point", "coordinates": [30.425174, -1.914524]}, "properties": {"name": "Gishari"}}, {"type": "Feature", "geometry": {"type": "Point", "coordinates": [29.683633, -1.894174]}, "properties": {"name": "Gisharu"}}, {"type": "Feature", "geometry": {"type": "Point", "coordinates": [29.873159, -2.585856]}, "properties": {"name": "Gishubi"}}, {"type": "Feature", "geometry": {"type": "Point", "coordinates": [29.65565, -2.125867]}, "properties": {"name": "Gishweru"}}, {"type": "Feature", "geometry": {"type": "Point", "coordinates": [30.12438, -1.60895]}, "properties": {"name": "Gisiza"}}, {"type": "Feature", "geometry": {"type": "Point", "coordinates": [29.66938, -1.437938]}, "properties": {"name": "Gisizi"}}, {"type": "Feature", "geometry": {"type": "Point", "coordinates": [29.297048, -2.223744]}, "properties": {"name": "Gisoke"}}, {"type": "Feature", "geometry": {"type": "Point", "coordinates": [29.35958, -2.234533]}, "properties": {"name": "Gisovu"}}, {"type": "Feature", "geometry": {"type": "Point", "coordinates": [29.78127, -2.0758]}, "properties": {"name": "Gitarama"}}, {"type": "Feature", "geometry": {"type": "Point", "coordinates": [29.76645, -1.390617]}, "properties": {"name": "Gitare"}}, {"type": "Feature", "geometry": {"type": "Point", "coordinates": [29.69177, -1.848917]}, "properties": {"name": "Gitega"}}, {"type": "Feature", "geometry": {"type": "Point", "coordinates": [30.22227, -1.7889]}, "properties": {"name": "Giti"}}, {"type": "Feature", "geometry": {"type": "Point", "coordinates": [30.322753, -1.642578]}, "properties": {"name": "Gitoki"}}, {"type": "Feature", "geometry": {"type": "Point", "coordinates": [29.919142, -1.586141]}, "properties": {"name": "Gitovu"}}, {"type": "Feature", "geometry": {"type": "Point", "coordinates": [30.63962, -2.135433]}, "properties": {"name": "Gituku"}}, {"type": "Feature", "geometry": {"type": "Point", "coordinates": [30.29185, -1.619217]}, "properties": {"name": "Gituza"}}, {"type": "Feature", "geometry": {"type": "Point", "coordinates": [29.579931, -1.832346]}, "properties": {"name": "Gitwa"}}, {"type": "Feature", "geometry": {"type": "Point", "coordinates": [29.6893, -2.247]}, "properties": {"name": "Gitwe"}}, {"type": "Feature", "geometry": {"type": "Point", "coordinates": [30.226216, -1.982341]}, "properties": {"name": "Good Hope"}}, {"type": "Feature", "geometry": {"type": "Point", "coordinates": [30.092268, -2.141984]}, "properties": {"name": "Good Windows"}}, {"type": "Feature", "geometry": {"type": "Point", "coordinates": [29.519108, -2.625136]}, "properties": {"name": "Gorwe"}}, {"type": "Feature", "geometry": {"type": "Point", "coordinates": [29.757646, -2.342551]}, "properties": {"name": "Hanika"}}, {"type": "Feature", "geometry": {"type": "Point", "coordinates": [29.443302, -1.942751]}, "properties": {"name": "Haniro"}}, {"type": "Feature", "geometry": {"type": "Point", "coordinates": [30.060732, -1.953318]}, "properties": {"name": "Harmony"}}, {"type": "Feature", "geometry": {"type": "Point", "coordinates": [29.619757, -1.811976]}, "properties": {"name": "Hindiro"}}, {"type": "Feature", "geometry": {"type": "Point", "coordinates": [30.05028, -1.94842]}, "properties": {"name": "Hirwa"}}, {"type": "Feature", "geometry": {"type": "Point", "coordinates": [30.1063, -1.95822]}, "properties": {"name": "Hopital Croix Du Sud"}}, {"type": "Feature", "geometry": {"type": "Point", "coordinates": [30.056857, -1.968211]}, "properties": {"name": "Humura"}}, {"type": "Feature", "geometry": {"type": "Point", "coordinates": [30.30645, -1.7997]}, "properties": {"name": "Humure"}}, {"type": "Feature", "geometry": {"type": "Point", "coordinates": [30.161787, -1.483515]}, "properties": {"name": "Hunga"}}, {"type": "Feature", "geometry": {"type": "Point", "coordinates": [29.868388, -1.788195]}, "properties": {"name": "Huro"}}, {"type": "Feature", "geometry": {"type": "Point", "coordinates": [29.746966, -2.606508]}, "properties": {"name": "Huye"}}, {"type": "Feature", "geometry": {"type": "Point", "coordinates": [29.741481, -2.621162]}, "properties": {"name": "Igiti cy'ubigingo"}}, {"type": "Feature", "geometry": {"type": "Point", "coordinates": [30.363951, -2.260666]}, "properties": {"name": "Ihanika"}}, {"type": "Feature", "geometry": {"type": "Point", "coordinates": [30.05346, -1.956181]}, "properties": {"name": "Ihumure"}}, {"type": "Feature", "geometry": {"type": "Point", "coordinates": [30.120887, -1.967801]}, "properties": {"name": "Ihumure Medical"}}, {"type": "Feature", "geometry": {"type": "Point", "coordinates": [30.223737, -1.977313]}, "properties": {"name": "Imanzi"}}, {"type": "Feature", "geometry": {"type": "Point", "coordinates": [30.063068, -1.951033]}, "properties": {"name": "Imboni"}}, {"type": "Feature", "geometry": {"type": "Point", "coordinates": [29.768718, -2.715556]}, "properties": {"name": "Impinga"}}, {"type": "Feature", "geometry": {"type": "Point", "coordinates": [30.087189, -1.978676]}, "properties": {"name": "Impuhwe"}}, {"type": "Feature", "geometry": {"type": "Point", "coordinates": [30.07945, -1.97396]}, "properties": {"name": "Inkuru Nziza Orthopedic Hosp"}}, {"type": "Feature", "geometry": {"type": "Point", "coordinates": [30.037838, -1.943257]}, "properties": {"name": "Inshuti"}}, {"type": "Feature", "geometry": {"type": "Point", "coordinates": [30.227052, -1.97812]}, "properties": {"name": "Iramiro"}}, {"type": "Feature", "geometry": {"type": "Point", "coordinates": [30.044485, -1.9365]}, "properties": {"name": "Isangano"}}, {"type": "Feature", "geometry": {"type": "Point", "coordinates": [30.05917, -1.94722]}, "properties": {"name": "Isango Medical"}}, {"type": "Feature", "geometry": {"type": "Point", "coordinates": [28.931113, -2.390558]}, "properties": {"name": "Ishywa"}}, {"type": "Feature", "geometry": {"type": "Point", "coordinates": [29.012155, -2.695579]}, "properties": {"name": "Islamic Bugarama"}}, {"type": "Feature", "geometry": {"type": "Point", "coordinates": [30.048971, -1.987254]}, "properties": {"name": "Ituze"}}, {"type": "Feature", "geometry": {"type": "Point", "coordinates": [30.099768, -1.979662]}, "properties": {"name": "Izere"}}, {"type": "Feature", "geometry": {"type": "Point", "coordinates": [30.01905, -1.890067]}, "properties": {"name": "Jali"}}, {"type": "Feature", "geometry": {"type": "Point", "coordinates": [29.67862, -1.68579]}, "properties": {"name": "Janja"}}, {"type": "Feature", "geometry": {"type": "Point", "coordinates": [29.225768, -2.23454]}, "properties": {"name": "Jarama"}}, {"type": "Feature", "geometry": {"type": "Point", "coordinates": [29.469477, -1.626234]}, "properties": {"name": "Jenda"}}, {"type": "Feature", "geometry": {"type": "Point", "coordinates": [29.556506, -1.703192]}, "properties": {"name": "Jomba"}}, {"type": "Feature", "geometry": {"type": "Point", "coordinates": [30.565819, -1.805001]}, "properties": {"name": "Juru"}}, {"type": "Feature", "geometry": {"type": "Point", "coordinates": [29.134049, -2.39371]}, "properties": {"name": "Jurwe"}}, {"type": "Feature", "geometry": {"type": "Point", "coordinates": [30.651334, -2.084753]}, "properties": {"name": "Kabare"}}, {"type": "Feature", "geometry": {"type": "Point", "coordinates": [29.37743, -1.647233]}, "properties": {"name": "Kabari"}}, {"type": "Feature", "geometry": {"type": "Point", "coordinates": [30.5577, -2.010384]}, "properties": {"name": "Kabarondo"}}, {"type": "Feature", "geometry": {"type": "Point", "coordinates": [30.558009, -2.01389]}, "properties": {"name": "Kabarondo Prive"}}, {"type": "Feature", "geometry": {"type": "Point", "coordinates": [30.38868, -1.62425]}, "properties": {"name": "Kabarore"}}, {"type": "Feature", "geometry": {"type": "Point", "coordinates": [29.39247, -1.549617]}, "properties": {"name": "Kabatwa"}}, {"type": "Feature", "geometry": {"type": "Point", "coordinates": [29.780177, -1.376751]}, "properties": {"name": "Kabaya"}}, {"type": "Feature", "geometry": {"type": "Point", "coordinates": [29.545805, -1.472084]}, "properties": {"name": "Kabazungu"}}, {"type": "Feature", "geometry": {"type": "Point", "coordinates": [29.442103, -2.715066]}, "properties": {"name": "Kabere"}}, {"type": "Feature", "geometry": {"type": "Point", "coordinates": [30.193024, -2.212001]}, "properties": {"name": "Kabeza"}}, {"type": "Feature", "geometry": {"type": "Point", "coordinates": [29.7525, -2.101867]}, "properties": {"name": "Kabgayi"}}, {"type": "Feature", "geometry": {"type": "Point", "coordinates": [29.62337, -2.6411]}, "properties": {"name": "Kabilizi"}}, {"type": "Feature", "geometry": {"type": "Point", "coordinates": [30.121926, -1.516278]}, "properties": {"name": "Kabo"}}, {"type": "Feature", "geometry": {"type": "Point", "coordinates": [29.829245, -1.43862]}, "properties": {"name": "Kabona"}}, {"type": "Feature", "geometry": {"type": "Point", "coordinates": [29.924246, -1.876061]}, "properties": {"name": "Kabuga"}}, {"type": "Feature", "geometry": {"type": "Point", "coordinates": [30.222173, -1.974701]}, "properties": {"name": "Kabuga YFC"}}, {"type": "Feature", "geometry": {"type": "Point", "coordinates": [30.189529, -2.102571]}, "properties": {"name": "Kabukuba"}}, {"type": "Feature", "geometry": {"type": "Point", "coordinates": [30.526628, -2.036364]}, "properties": {"name": "Kabura"}}, {"type": "Feature", "geometry": {"type": "Point", "coordinates": [29.253857, -2.276776]}, "properties": {"name": "Kaburiro"}}, {"type": "Feature", "geometry": {"type": "Point", "coordinates": [30.313704, -1.615113]}, "properties": {"name": "Kaburungo"}}, {"type": "Feature", "geometry": {"type": "Point", "coordinates": [30.05193, -1.9636]}, "properties": {"name": "Kabusunzu"}}, {"type": "Feature", "geometry": {"type": "Point", "coordinates": [29.7473, -2.6073]}, "properties": {"name": "Kabutare"}}, {"type": "Feature", "geometry": {"type": "Point", "coordinates": [30.06348, -1.889883]}, "properties": {"name": "Kabuye"}}, {"type": "Feature", "geometry": {"type": "Point", "coordinates": [30.075489, -1.932984]}, "properties": {"name": "Kacyiru"}}, {"type": "Feature", "geometry": {"type": "Point", "coordinates": [29.616507, -2.259553]}, "properties": {"name": "Kadaho"}}, {"type": "Feature", "geometry": {"type": "Point", "coordinates": [29.524335, -2.333111]}, "properties": {"name": "Kaduha"}}, {"type": "Feature", "geometry": {"type": "Point", "coordinates": [30.159802, -1.671757]}, "properties": {"name": "Kagamba"}}, {"type": "Feature", "geometry": {"type": "Point", "coordinates": [29.792712, -1.413753]}, "properties": {"name": "Kaganda"}}, {"type": "Feature", "geometry": {"type": "Point", "coordinates": [29.065484, -2.408425]}, "properties": {"name": "Kagarama"}}, {"type": "Feature", "geometry": {"type": "Point", "coordinates": [30.752062, -2.136795]}, "properties": {"name": "Kagese"}}, {"type": "Feature", "geometry": {"type": "Point", "coordinates": [29.588558, -1.871732]}, "properties": {"name": "Kageyo"}}, {"type": "Feature", "geometry": {"type": "Point", "coordinates": [29.591446, -1.871032]}, "properties": {"name": "Kageyo Fosacom"}}, {"type": "Feature", "geometry": {"type": "Point", "coordinates": [29.739315, -1.376924]}, "properties": {"name": "Kagitega"}}, {"type": "Feature", "geometry": {"type": "Point", "coordinates": [30.44938, -1.076833]}, "properties": {"name": "Kagitumba"}}, {"type": "Feature", "geometry": {"type": "Point", "coordinates": [30.252202, -1.753764]}, "properties": {"name": "Kagogo"}}, {"type": "Feature", "geometry": {"type": "Point", "coordinates": [30.08625, -1.912967]}, "properties": {"name": "Kagugu"}}, {"type": "Feature", "geometry": {"type": "Point", "coordinates": [30.128236, -1.973462]}, "properties": {"name": "Kairos"}}, {"type": "Feature", "geometry": {"type": "Point", "coordinates": [29.992135, -1.848135]}, "properties": {"name": "Kajevuba"}}, {"type": "Feature", "geometry": {"type": "Point", "coordinates": [29.570639, -1.811056]}, "properties": {"name": "Kajinge"}}, {"type": "Feature", "geometry": {"type": "Point", "coordinates": [30.13015, -2.371917]}, "properties": {"name": "Kamabuye"}}, {"type": "Feature", "geometry": {"type": "Point", "coordinates": [30.391159, -1.315297]}, "properties": {"name": "Kamagiri"}}, {"type": "Feature", "geometry": {"type": "Point", "coordinates": [29.743635, -1.347822]}, "properties": {"name": "Kamanyana"}}, {"type": "Feature", "geometry": {"type": "Point", "coordinates": [30.421182, -1.374005]}, "properties": {"name": "Kamate"}}, {"type": "Feature", "geometry": {"type": "Point", "coordinates": [29.726326, -1.637011]}, "properties": {"name": "Kamina"}}, {"type": "Feature", "geometry": {"type": "Point", "coordinates": [29.709809, -1.564383]}, "properties": {"name": "Kamisave"}}, {"type": "Feature", "geometry": {"type": "Point", "coordinates": [29.902588, -1.95426]}, "properties": {"name": "Kamonyi"}}, {"type": "Feature", "geometry": {"type": "Point", "coordinates": [29.794344, -1.589605]}, "properties": {"name": "Kamubuga"}}, {"type": "Feature", "geometry": {"type": "Point", "coordinates": [28.988495, -2.610214]}, "properties": {"name": "Kamukobe"}}, {"type": "Feature", "geometry": {"type": "Point", "coordinates": [29.613113, -1.461192]}, "properties": {"name": "Kamwumba"}}, {"type": "Feature", "geometry": {"type": "Point", "coordinates": [30.067212, -2.16797]}, "properties": {"name": "Kanazi"}}, {"type": "Feature", "geometry": {"type": "Point", "coordinates": [30.037145, -1.42815]}, "properties": {"name": "Kaniga"}}, {"type": "Feature", "geometry": {"type": "Point", "coordinates": [30.498869, -1.275203]}, "properties": {"name": "Kanombe"}}, {"type": "Feature", "geometry": {"type": "Point", "coordinates": [29.75083, -2.701217]}, "properties": {"name": "Kansi"}}, {"type": "Feature", "geometry": {"type": "Point", "coordinates": [30.430245, -1.681721]}, "properties": {"name": "Kanyangesi"}}, {"type": "Feature", "geometry": {"type": "Point", "coordinates": [30.005013, -1.917021]}, "properties": {"name": "Kanyinya"}}, {"type": "Feature", "geometry": {"type": "Point", "coordinates": [30.08965, -2.07031]}, "properties": {"name": "Kanzenze"}}, {"type": "Feature", "geometry": {"type": "Point", "coordinates": [29.643728, -2.608939]}, "properties": {"name": "Karama"}}, {"type": "Feature", "geometry": {"type": "Point", "coordinates": [30.243698, -1.503312]}, "properties": {"name": "Karambi"}}, {"type": "Feature", "geometry": {"type": "Point", "coordinates": [29.377399, -1.716626]}, "properties": {"name": "Karambo"}}, {"type": "Feature", "geometry": {"type": "Point", "coordinates": [29.8998, -1.897317]}, "properties": {"name": "Karangara"}}, {"type": "Feature", "geometry": {"type": "Point", "coordinates": [30.3885, -1.388333]}, "properties": {"name": "Karangazi"}}, {"type": "Feature", "geometry": {"type": "Point", "coordinates": [29.4763, -1.583433]}, "properties": {"name": "Kareba"}}, {"type": "Feature", "geometry": {"type": "Point", "coordinates": [30.447213, -2.124831]}, "properties": {"name": "Karembo"}}, {"type": "Feature", "geometry": {"type": "Point", "coordinates": [30.30962, -2.081833]}, "properties": {"name": "Karenge"}}, {"type": "Feature", "geometry": {"type": "Point", "coordinates": [29.22193, -2.260484]}, "properties": {"name": "Karengera"}}, {"type": "Feature", "geometry": {"type": "Point", "coordinates": [30.225306, -1.980098]}, "properties": {"name": "Karimba"}}, {"type": "Feature", "geometry": {"type": "Point", "coordinates": [29.34535, -2.067989]}, "properties": {"name": "Karongi"}}, {"type": "Feature", "geometry": {"type": "Point", "coordinates": [29.480205, -2.055871]}, "properties": {"name": "Karongi Police"}}, {"type": "Feature", "geometry": {"type": "Point", "coordinates": [29.29082, -2.0874]}, "properties": {"name": "Karora"}}, {"type": "Feature", "geometry": {"type": "Point", "coordinates": [29.45122, -1.864917]}, "properties": {"name": "Karumbi"}}, {"type": "Feature", "geometry": {"type": "Point", "coordinates": [30.553294, -1.323052]}, "properties": {"name": "Karushunga"}}, {"type": "Feature", "geometry": {"type": "Point", "coordinates": [29.67615, -1.489633]}, "properties": {"name": "Karwasa"}}, {"type": "Feature", "geometry": {"type": "Point", "coordinates": [30.27691, -1.474233]}, "properties": {"name": "Katabagemu"}}, {"type": "Feature", "geometry": {"type": "Point", "coordinates": [29.570446, -1.567929]}, "properties": {"name": "Kavumu"}}, {"type": "Feature", "geometry": {"type": "Point", "coordinates": [30.44718, -1.82381]}, "properties": {"name": "Kawangire"}}, {"type": "Feature", "geometry": {"type": "Point", "coordinates": [30.19052, -1.8421]}, "properties": {"name": "Kayanga"}}, {"type": "Feature", "geometry": {"type": "Point", "coordinates": [29.749908, -1.369876]}, "properties": {"name": "Kayenzi"}}, {"type": "Feature", "geometry": {"type": "Point", "coordinates": [30.507036, -1.902225]}, "properties": {"name": "Kayonza"}}, {"type": "Feature", "geometry": {"type": "Point", "coordinates": [29.3437, -1.887233]}, "properties": {"name": "Kayove"}}, {"type": "Feature", "geometry": {"type": "Point", "coordinates": [30.067957, -2.125788]}, "properties": {"name": "Kayumba"}}, {"type": "Feature", "geometry": {"type": "Point", "coordinates": [30.506316, -2.208095]}, "properties": {"name": "Kazo"}}, {"type": "Feature", "geometry": {"type": "Point", "coordinates": [30.112, -1.9308]}, "properties": {"name": "Kibagabaga"}}, {"type": "Feature", "geometry": {"type": "Point", "coordinates": [29.037867, -2.714176]}, "properties": {"name": "Kibangira"}}, {"type": "Feature", "geometry": {"type": "Point", "coordinates": [30.532483, -2.275686]}, "properties": {"name": "Kibara"}}, {"type": "Feature", "geometry": {"type": "Point", "coordinates": [30.632637, -2.140475]}, "properties": {"name": "Kibatsi"}}, {"type": "Feature", "geometry": {"type": "Point", "coordinates": [29.8593, -2.732067]}, "properties": {"name": "Kibayi"}}, {"type": "Feature", "geometry": {"type": "Point", "coordinates": [29.559766, -2.649606]}, "properties": {"name": "Kibeho"}}, {"type": "Feature", "geometry": {"type": "Point", "coordinates": [30.096128, -2.206757]}, "properties": {"name": "Kibenga"}}, {"type": "Feature", "geometry": {"type": "Point", "coordinates": [29.560339, -2.435317]}, "properties": {"name": "Kibilizi"}}, {"type": "Feature", "geometry": {"type": "Point", "coordinates": [29.357133, -1.996154]}, "properties": {"name": "Kibingo"}}, {"type": "Feature", "geometry": {"type": "Point", "coordinates": [29.394001, -2.052908]}, "properties": {"name": "Kibirizi"}}, {"type": "Feature", "geometry": {"type": "Point", "coordinates": [29.13729, -2.330784]}, "properties": {"name": "Kibogora"}}, {"type": "Feature", "geometry": {"type": "Point", "coordinates": [30.31911, -1.563967]}, "properties": {"name": "Kibondo"}}, {"type": "Feature", "geometry": {"type": "Point", "coordinates": [29.342522, -2.26028]}, "properties": {"name": "Kibuhuro"}}, {"type": "Feature", "geometry": {"type": "Point", "coordinates": [29.522211, -2.40136]}, "properties": {"name": "Kibumbwe"}}, {"type": "Feature", "geometry": {"type": "Point", "coordinates": [30.5394, -2.1659]}, "properties": {"name": "Kibungo"}}, {"type": "Feature", "geometry": {"type": "Point", "coordinates": [29.3463, -2.067]}, "properties": {"name": "Kibuye"}}, {"type": "Feature", "geometry": {"type": "Point", "coordinates": [29.727836, -1.932324]}, "properties": {"name": "Kibyimba"}}, {"type": "Feature", "geometry": {"type": "Point", "coordinates": [30.090952, -1.980819]}, "properties": {"name": "Kicukiro"}}, {"type": "Feature", "geometry": {"type": "Point", "coordinates": [29.680165, -1.446065]}, "properties": {"name": "Kidakama"}}, {"type": "Feature", "geometry": {"type": "Point", "coordinates": [30.069488, -1.862536]}, "properties": {"name": "Kidashya"}}, {"type": "Feature", "geometry": {"type": "Point", "coordinates": [29.817904, -1.581005]}, "properties": {"name": "Kidomo"}}, {"type": "Feature", "geometry": {"type": "Point", "coordinates": [29.690265, -2.610617]}, "properties": {"name": "Kiduha"}}, {"type": "Feature", "geometry": {"type": "Point", "coordinates": [30.103927, -1.963747]}, "properties": {"name": "Kigali Adventiste Dental Clinic"}}, {"type": "Feature", "geometry": {"type": "Point", "coordinates": [30.10294, -1.95353]}, "properties": {"name": "Kigali Dermatology"}}, {"type": "Feature", "geometry": {"type": "Point", "coordinates": [30.058202, -1.943522]}, "properties": {"name": "Kigali Optic"}}, {"type": "Feature", "geometry": {"type": "Point", "coordinates": [30.682696, -2.357117]}, "properties": {"name": "Kigarama"}}, {"type": "Feature", "geometry": {"type": "Point", "coordinates": [30.269951, -1.536333]}, "properties": {"name": "Kigasha"}}, {"type": "Feature", "geometry": {"type": "Point", "coordinates": [29.73707, -2.7803]}, "properties": {"name": "Kigembe"}}, {"type": "Feature", "geometry": {"type": "Point", "coordinates": [29.5257, -2.479917]}, "properties": {"name": "Kigeme"}}, {"type": "Feature", "geometry": {"type": "Point", "coordinates": [28.982569, -2.667173]}, "properties": {"name": "Kigenge"}}, {"type": "Feature", "geometry": {"type": "Point", "coordinates": [29.97278, -2.014667]}, "properties": {"name": "Kigese"}}, {"type": "Feature", "geometry": {"type": "Point", "coordinates": [30.00968, -1.593333]}, "properties": {"name": "Kigogo"}}, {"type": "Feature", "geometry": {"type": "Point", "coordinates": [29.79272, -2.261867]}, "properties": {"name": "Kigoma"}}, {"type": "Feature", "geometry": {"type": "Point", "coordinates": [29.27858, -1.75103]}, "properties": {"name": "Kigufi"}}, {"type": "Feature", "geometry": {"type": "Point", "coordinates": [30.373859, -1.172148]}, "properties": {"name": "Kijojo"}}, {"type": "Feature", "geometry": {"type": "Point", "coordinates": [29.576762, -2.185611]}, "properties": {"name": "Kilinda"}}, {"type": "Feature", "geometry": {"type": "Point", "coordinates": [29.815086, -2.513353]}, "properties": {"name": "Kimana"}}, {"type": "Feature", "geometry": {"type": "Point", "coordinates": [29.925341, -2.249956]}, "properties": {"name": "Kimirima"}}, {"type": "Feature", "geometry": {"type": "Point", "coordinates": [30.052366, -1.956224]}, "properties": {"name": "Kimisagara"}}, {"type": "Feature", "geometry": {"type": "Point", "coordinates": [29.598634, -1.512273]}, "properties": {"name": "Kimonyi"}}, {"type": "Feature", "geometry": {"type": "Point", "coordinates": [29.90462, -2.192667]}, "properties": {"name": "Kinazi"}}, {"type": "Feature", "geometry": {"type": "Point", "coordinates": [30.062238, -2.3116]}, "properties": {"name": "Kindama"}}, {"type": "Feature", "geometry": {"type": "Point", "coordinates": [30.0951, -1.9439]}, "properties": {"name": "King Faisal Hospital"}}, {"type": "Feature", "geometry": {"type": "Point", "coordinates": [30.049339, -1.942529]}, "properties": {"name": "King Power"}}, {"type": "Feature", "geometry": {"type": "Point", "coordinates": [29.58238, -1.4492]}, "properties": {"name": "Kinigi"}}, {"type": "Feature", "geometry": {"type": "Point", "coordinates": [29.988553, -1.661871]}, "properties": {"name": "Kinihira"}}, {"type": "Feature", "geometry": {"type": "Point", "coordinates": [29.084421, -2.3841]}, "properties": {"name": "Kinini"}}, {"type": "Feature", "geometry": {"type": "Point", "coordinates": [29.72788, -1.43765]}, "properties": {"name": "Kinoni"}}, {"type": "Feature", "geometry": {"type": "Point", "coordinates": [29.552437, -1.60643]}, "properties": {"name": "Kintobo"}}, {"type": "Feature", "geometry": {"type": "Point", "coordinates": [29.29443, -1.907833]}, "properties": {"name": "Kinunu"}}, {"type": "Feature", "geometry": {"type": "Point", "coordinates": [29.81263, -1.3682]}, "properties": {"name": "Kinyababa"}}, {"type": "Feature", "geometry": {"type": "Point", "coordinates": [29.6485, -2.472883]}, "properties": {"name": "Kinyamakara"}}, {"type": "Feature", "geometry": {"type": "Point", "coordinates": [30.262869, -1.924998]}, "properties": {"name": "Kinyana"}}, {"type": "Feature", "geometry": {"type": "Point", "coordinates": [29.30508, -1.640606]}, "properties": {"name": "Kinyanzovu"}}, {"type": "Feature", "geometry": {"type": "Point", "coordinates": [30.11195, -1.918583]}, "properties": {"name": "Kinyinya"}}, {"type": "Feature", "geometry": {"type": "Point", "coordinates": [30.078088, -1.9185]}, "properties": {"name": "Kira"}}, {"type": "Feature", "geometry": {"type": "Point", "coordinates": [29.66145, -2.412467]}, "properties": {"name": "Kirambi"}}, {"type": "Feature", "geometry": {"type": "Point", "coordinates": [29.83356, -1.493167]}, "properties": {"name": "Kirambo"}}, {"type": "Feature", "geometry": {"type": "Point", "coordinates": [29.89993, -2.620667]}, "properties": {"name": "Kirarambogo"}}, {"type": "Feature", "geometry": {"type": "Point", "coordinates": [29.819552, -1.639245]}, "properties": {"name": "Kirebe"}}, {"type": "Feature", "geometry": {"type": "Point", "coordinates": [30.653753, -2.265945]}, "properties": {"name": "Kirehe"}}, {"type": "Feature", "geometry": {"type": "Point", "coordinates": [29.784361, -1.544922]}, "properties": {"name": "Kiribata"}}, {"type": "Feature", "geometry": {"type": "Point", "coordinates": [29.576708, -2.185696]}, "properties": {"name": "Kirinda"}}, {"type": "Feature", "geometry": {"type": "Point", "coordinates": [30.060511, -1.464244]}, "properties": {"name": "Kiruhura"}}, {"type": "Feature", "geometry": {"type": "Point", "coordinates": [29.653314, -2.191389]}, "properties": {"name": "Kirwa"}}, {"type": "Feature", "geometry": {"type": "Point", "coordinates": [29.348284, -1.68611]}, "properties": {"name": "Kisangani"}}, {"type": "Feature", "geometry": {"type": "Point", "coordinates": [30.026821, -1.619889]}, "properties": {"name": "Kisaro"}}, {"type": "Feature", "geometry": {"type": "Point", "coordinates": [29.42745, -2.521183]}, "properties": {"name": "Kitabi"}}, {"type": "Feature", "geometry": {"type": "Point", "coordinates": [30.47856, -1.8707]}, "properties": {"name": "Kitazigurwa"}}, {"type": "Feature", "geometry": {"type": "Point", "coordinates": [29.459976, -2.615773]}, "properties": {"name": "Kivu"}}, {"type": "Feature", "geometry": {"type": "Point", "coordinates": [29.804647, -2.046612]}, "properties": {"name": "Kivumu"}}, {"type": "Feature", "geometry": {"type": "Point", "coordinates": [29.93128, -1.492183]}, "properties": {"name": "Kivuye"}}, {"type": "Feature", "geometry": {"type": "Point", "coordinates": [30.06612, -1.760283]}, "properties": {"name": "Kiyanza"}}, {"type": "Feature", "geometry": {"type": "Point", "coordinates": [30.750107, -2.31191]}, "properties": {"name": "Kiyanzi"}}, {"type": "Feature", "geometry": {"type": "Point", "coordinates": [29.631115, -2.461388]}, "properties": {"name": "Kiyumba"}}, {"type": "Feature", "geometry": {"type": "Point", "coordinates": [30.04379, -1.936701]}, "properties": {"name": "Kiza"}}, {"type": "Feature", "geometry": {"type": "Point", "coordinates": [29.355412, -2.132428]}, "properties": {"name": "Kiziba"}}, {"type": "Feature", "geometry": {"type": "Point", "coordinates": [29.81858, -2.1728]}, "properties": {"name": "Kizibere"}}, {"type": "Feature", "geometry": {"type": "Point", "coordinates": [30.3848, -1.7666]}, "properties": {"name": "Kiziguro"}}, {"type": "Feature", "geometry": {"type": "Point", "coordinates": [29.408424, -2.451912]}, "properties": {"name": "Kizimyamuriro"}}, {"type": "Feature", "geometry": {"type": "Point", "coordinates": [29.031354, -2.659369]}, "properties": {"name": "Kizura"}}, {"type": "Feature", "geometry": {"type": "Point", "coordinates": [30.054575, -1.950442]}, "properties": {"name": "Kora"}}, {"type": "Feature", "geometry": {"type": "Point", "coordinates": [30.096692, -1.968635]}, "properties": {"name": "Kwizera"}}, {"type": "Feature", "geometry": {"type": "Point", "coordinates": [30.02028, -1.95134]}, "properties": {"name": "La Bonne Sant\u00e9"}}, {"type": "Feature", "geometry": {"type": "Point", "coordinates": [30.036974, -1.979334]}, "properties": {"name": "La Charite"}}, {"type": "Feature", "geometry": {"type": "Point", "coordinates": [30.085091, -1.978857]}, "properties": {"name": "La Divine"}}, {"type": "Feature", "geometry": {"type": "Point", "coordinates": [30.101218, -1.932318]}, "properties": {"name": "La Fraternite"}}, {"type": "Feature", "geometry": {"type": "Point", "coordinates": [30.061881, -1.933735]}, "properties": {"name": "La Fraternit\u00e9 Medical"}}, {"type": "Feature", "geometry": {"type": "Point", "coordinates": [30.064553, -1.944684]}, "properties": {"name": "La M\u00e9dicale (Kwa Kanimba)"}}, {"type": "Feature", "geometry": {"type": "Point", "coordinates": [30.119423, -1.960383]}, "properties": {"name": "La Triade"}}, {"type": "Feature", "geometry": {"type": "Point", "coordinates": [30.062178, -1.934353]}, "properties": {"name": "La Valee"}}, {"type": "Feature", "geometry": {"type": "Point", "coordinates": [30.10305, -1.96061]}, "properties": {"name": "Le Bon Samaritain"}}, {"type": "Feature", "geometry": {"type": "Point", "coordinates": [30.06773, -1.94758]}, "properties": {"name": "Life Clinic"}}, {"type": "Feature", "geometry": {"type": "Point", "coordinates": [29.743441, -2.616319]}, "properties": {"name": "LUCS"}}, {"type": "Feature", "geometry": {"type": "Point", "coordinates": [29.518679, -1.915209]}, "properties": {"name": "Mabuye"}}, {"type": "Feature", "geometry": {"type": "Point", "coordinates": [29.987911, -1.552046]}, "properties": {"name": "Mafurebo"}}, {"type": "Feature", "geometry": {"type": "Point", "coordinates": [30.054018, -1.975468]}, "properties": {"name": "Magnificat"}}, {"type": "Feature", "geometry": {"type": "Point", "coordinates": [30.804948, -2.250292]}, "properties": {"name": "Mahama"}}, {"type": "Feature", "geometry": {"type": "Point", "coordinates": [29.281384, -2.232733]}, "properties": {"name": "Mahembe"}}, {"type": "Feature", "geometry": {"type": "Point", "coordinates": [29.762946, -2.041221]}, "properties": {"name": "Makera"}}, {"type": "Feature", "geometry": {"type": "Point", "coordinates": [29.58207, -2.346528]}, "properties": {"name": "Mamwari"}}, {"type": "Feature", "geometry": {"type": "Point", "coordinates": [29.387204, -2.280879]}, "properties": {"name": "Manji"}}, {"type": "Feature", "geometry": {"type": "Point", "coordinates": [30.00153, -1.518517]}, "properties": {"name": "Manyagiro"}}, {"type": "Feature", "geometry": {"type": "Point", "coordinates": [29.635188, -2.52251]}, "properties": {"name": "Maraba"}}, {"type": "Feature", "geometry": {"type": "Point", "coordinates": [30.07023, -2.247817]}, "properties": {"name": "Mareba"}}, {"type": "Feature", "geometry": {"type": "Point", "coordinates": [29.931972, -1.665292]}, "properties": {"name": "Marembo"}}, {"type": "Feature", "geometry": {"type": "Point", "coordinates": [29.797409, -1.491545]}, "properties": {"name": "Mariba"}}, {"type": "Feature", "geometry": {"type": "Point", "coordinates": [30.193814, -1.997478]}, "properties": {"name": "Masaka"}}, {"type": "Feature", "geometry": {"type": "Point", "coordinates": [29.668615, -1.735702]}, "properties": {"name": "Masangano"}}, {"type": "Feature", "geometry": {"type": "Point", "coordinates": [29.0073, -2.59685]}, "properties": {"name": "Mashesha"}}, {"type": "Feature", "geometry": {"type": "Point", "coordinates": [30.06017, -1.820817]}, "properties": {"name": "Masoro"}}, {"type": "Feature", "geometry": {"type": "Point", "coordinates": [29.741704, -2.040287]}, "properties": {"name": "Mata"}}, {"type": "Feature", "geometry": {"type": "Point", "coordinates": [30.126308, -1.688453]}, "properties": {"name": "Mataba"}}, {"type": "Feature", "geometry": {"type": "Point", "coordinates": [30.423339, -1.123166]}, "properties": {"name": "Matimba"}}, {"type": "Feature", "geometry": {"type": "Point", "coordinates": [29.715615, -2.593364]}, "properties": {"name": "Matyazo"}}, {"type": "Feature", "geometry": {"type": "Point", "coordinates": [30.221771, -1.542813]}, "properties": {"name": "Mayange"}}, {"type": "Feature", "geometry": {"type": "Point", "coordinates": [30.338882, -2.308012]}, "properties": {"name": "Mazane"}}, {"type": "Feature", "geometry": {"type": "Point", "coordinates": [29.296494, -1.855735]}, "properties": {"name": "Maziba"}}, {"type": "Feature", "geometry": {"type": "Point", "coordinates": [30.363936, -1.36359]}, "properties": {"name": "Mbale"}}, {"type": "Feature", "geometry": {"type": "Point", "coordinates": [29.592025, -2.620095]}, "properties": {"name": "Mbasa"}}, {"type": "Feature", "geometry": {"type": "Point", "coordinates": [29.74588, -2.5517]}, "properties": {"name": "Mbazi"}}, {"type": "Feature", "geometry": {"type": "Point", "coordinates": [30.442516, -1.742826]}, "properties": {"name": "Mbogo"}}, {"type": "Feature", "geometry": {"type": "Point", "coordinates": [29.48067, -2.49705]}, "properties": {"name": "Mbuga"}}, {"type": "Feature", "geometry": {"type": "Point", "coordinates": [29.84788, -2.131233]}, "properties": {"name": "Mbuye"}}, {"type": "Feature", "geometry": {"type": "Point", "coordinates": [29.746069, -1.573496]}, "properties": {"name": "Mbwe"}}, {"type": "Feature", "geometry": {"type": "Point", "coordinates": [28.954293, -2.56802]}, "properties": {"name": "Mibilizi"}}, {"type": "Feature", "geometry": {"type": "Point", "coordinates": [28.943461, -2.526462]}, "properties": {"name": "Miko"}}, {"type": "Feature", "geometry": {"type": "Point", "coordinates": [30.257823, -1.447854]}, "properties": {"name": "Mimuli"}}, {"type": "Feature", "geometry": {"type": "Point", "coordinates": [29.794846, -1.734193]}, "properties": {"name": "Minazi"}}, {"type": "Feature", "geometry": {"type": "Point", "coordinates": [29.97905, -1.6161]}, "properties": {"name": "Miyove"}}, {"type": "Feature", "geometry": {"type": "Point", "coordinates": [30.039672, -1.943042]}, "properties": {"name": "Mizero"}}, {"type": "Feature", "geometry": {"type": "Point", "coordinates": [28.905533, -2.482039]}, "properties": {"name": "Mont Cyangugu"}}, {"type": "Feature", "geometry": {"type": "Point", "coordinates": [29.727521, -2.123359]}, "properties": {"name": "Mpanda"}}, {"type": "Feature", "geometry": {"type": "Point", "coordinates": [29.720849, -2.622949]}, "properties": {"name": "Mpare"}}, {"type": "Feature", "geometry": {"type": "Point", "coordinates": [29.265299, -2.117845]}, "properties": {"name": "Mpembe"}}, {"type": "Feature", "geometry": {"type": "Point", "coordinates": [30.109379, -1.960208]}, "properties": {"name": "Mpore Liberte (Gasabo)"}}, {"type": "Feature", "geometry": {"type": "Point", "coordinates": [29.109306, -2.399918]}, "properties": {"name": "Mpumbu"}}, {"type": "Feature", "geometry": {"type": "Point", "coordinates": [29.822402, -2.008748]}, "properties": {"name": "Mpushi"}}, {"type": "Feature", "geometry": {"type": "Point", "coordinates": [29.568926, -2.141673]}, "properties": {"name": "Mubuga"}}, {"type": "Feature", "geometry": {"type": "Point", "coordinates": [29.66865, -1.387617]}, "properties": {"name": "Mucaca"}}, {"type": "Feature", "geometry": {"type": "Point", "coordinates": [29.64245, -2.295617]}, "properties": {"name": "Mucubira"}}, {"type": "Feature", "geometry": {"type": "Point", "coordinates": [29.37683, -1.60437]}, "properties": {"name": "Mudende"}}, {"type": "Feature", "geometry": {"type": "Point", "coordinates": [29.508537, -2.26434]}, "properties": {"name": "Mugano"}}, {"type": "Feature", "geometry": {"type": "Point", "coordinates": [29.49418, -2.688117]}, "properties": {"name": "Muganza"}}, {"type": "Feature", "geometry": {"type": "Point", "coordinates": [29.867926, -2.650577]}, "properties": {"name": "Muganza (Byiza)"}}, {"type": "Feature", "geometry": {"type": "Point", "coordinates": [29.043914, -2.380103]}, "properties": {"name": "Mugera"}}, {"type": "Feature", "geometry": {"type": "Point", "coordinates": [29.94647, -2.108083]}, "properties": {"name": "Mugina"}}, {"type": "Feature", "geometry": {"type": "Point", "coordinates": [29.8601, -2.6793]}, "properties": {"name": "Mugombwa"}}, {"type": "Feature", "geometry": {"type": "Point", "coordinates": [29.292874, -2.18218]}, "properties": {"name": "Mugonero"}}, {"type": "Feature", "geometry": {"type": "Point", "coordinates": [30.24127, -2.128783]}, "properties": {"name": "Mugororore"}}, {"type": "Feature", "geometry": {"type": "Point", "coordinates": [29.648004, -1.697018]}, "properties": {"name": "Mugunga"}}, {"type": "Feature", "geometry": {"type": "Point", "coordinates": [30.16457, -1.4424]}, "properties": {"name": "Muhambo"}}, {"type": "Feature", "geometry": {"type": "Point", "coordinates": [29.75792, -2.076762]}, "properties": {"name": "Muhanga"}}, {"type": "Feature", "geometry": {"type": "Point", "coordinates": [29.75844, -2.077903]}, "properties": {"name": "Muhanga YFC"}}, {"type": "Feature", "geometry": {"type": "Point", "coordinates": [28.9086, -2.448996]}, "properties": {"name": "Muhari"}}, {"type": "Feature", "geometry": {"type": "Point", "coordinates": [28.975531, -2.638948]}, "properties": {"name": "Muhehwe"}}, {"type": "Feature", "geometry": {"type": "Point", "coordinates": [30.0585, -1.9367]}, "properties": {"name": "Muhima"}}, {"type": "Feature", "geometry": {"type": "Point", "coordinates": [30.08573, -1.6288]}, "properties": {"name": "Muhondo"}}, {"type": "Feature", "geometry": {"type": "Point", "coordinates": [29.769206, -2.515943]}, "properties": {"name": "Muhororo"}}, {"type": "Feature", "geometry": {"type": "Point", "coordinates": [29.86539, -1.432418]}, "properties": {"name": "Muhotora"}}, {"type": "Feature", "geometry": {"type": "Point", "coordinates": [29.636746, -1.506078]}, "properties": {"name": "Muhoza"}}, {"type": "Feature", "geometry": {"type": "Point", "coordinates": [30.264151, -1.729006]}, "properties": {"name": "Muhura"}}, {"type": "Feature", "geometry": {"type": "Point", "coordinates": [30.546109, -2.093374]}, "properties": {"name": "Muhurire"}}, {"type": "Feature", "geometry": {"type": "Point", "coordinates": [30.294633, -2.278274]}, "properties": {"name": "Mujwiri"}}, {"type": "Feature", "geometry": {"type": "Point", "coordinates": [29.968169, -1.622425]}, "properties": {"name": "Mukaka"}}, {"type": "Feature", "geometry": {"type": "Point", "coordinates": [30.07173, -1.48915]}, "properties": {"name": "Mukarange"}}, {"type": "Feature", "geometry": {"type": "Point", "coordinates": [30.22822, -1.6979]}, "properties": {"name": "Muko"}}, {"type": "Feature", "geometry": {"type": "Point", "coordinates": [30.118422, -2.260279]}, "properties": {"name": "Mukoma"}}, {"type": "Feature", "geometry": {"type": "Point", "coordinates": [29.829995, -2.730604]}, "properties": {"name": "Mukomacara"}}, {"type": "Feature", "geometry": {"type": "Point", "coordinates": [29.342524, -1.718065]}, "properties": {"name": "Mukondo"}}, {"type": "Feature", "geometry": {"type": "Point", "coordinates": [30.10838, -1.56365]}, "properties": {"name": "Mukono"}}, {"type": "Feature", "geometry": {"type": "Point", "coordinates": [29.41822, -2.24055]}, "properties": {"name": "Mukungu"}}, {"type": "Feature", "geometry": {"type": "Point", "coordinates": [29.48692, -2.008483]}, "properties": {"name": "Mukura"}}, {"type": "Feature", "geometry": {"type": "Point", "coordinates": [30.201431, -1.912717]}, "properties": {"name": "Mukuyu"}}, {"type": "Feature", "geometry": {"type": "Point", "coordinates": [30.04278, -1.478083]}, "properties": {"name": "Mulindi"}}, {"type": "Feature", "geometry": {"type": "Point", "coordinates": [30.059444, -1.979862]}, "properties": {"name": "Mumena"}}, {"type": "Feature", "geometry": {"type": "Point", "coordinates": [29.609753, -2.213451]}, "properties": {"name": "Munanira"}}, {"type": "Feature", "geometry": {"type": "Point", "coordinates": [29.79496, -2.549654]}, "properties": {"name": "Munazi"}}, {"type": "Feature", "geometry": {"type": "Point", "coordinates": [29.5355, -2.71341]}, "properties": {"name": "Munini"}}, {"type": "Feature", "geometry": {"type": "Point", "coordinates": [30.4661, -2.027583]}, "properties": {"name": "Munyaga"}}, {"type": "Feature", "geometry": {"type": "Point", "coordinates": [30.384293, -1.91712]}, "properties": {"name": "Munyiginya"}}, {"type": "Feature", "geometry": {"type": "Point", "coordinates": [30.13542, -1.644633]}, "properties": {"name": "Munyinya"}}, {"type": "Feature", "geometry": {"type": "Point", "coordinates": [29.58348, -2.1142]}, "properties": {"name": "Munzanga"}}, {"type": "Feature", "geometry": {"type": "Point", "coordinates": [30.116586, -1.950691]}, "properties": {"name": "Murakamaho"}}, {"type": "Feature", "geometry": {"type": "Point", "coordinates": [29.604125, -1.602865]}, "properties": {"name": "Murama"}}, {"type": "Feature", "geometry": {"type": "Point", "coordinates": [29.61253, -1.770617]}, "properties": {"name": "Muramba"}}, {"type": "Feature", "geometry": {"type": "Point", "coordinates": [29.77017, -1.760635]}, "properties": {"name": "Murambi"}}, {"type": "Feature", "geometry": {"type": "Point", "coordinates": [29.72925, -1.5473]}, "properties": {"name": "Murandi"}}, {"type": "Feature", "geometry": {"type": "Point", "coordinates": [29.25591, -1.67245]}, "properties": {"name": "Murara"}}, {"type": "Feature", "geometry": {"type": "Point", "coordinates": [30.282681, -2.007962]}, "properties": {"name": "Murehe"}}, {"type": "Feature", "geometry": {"type": "Point", "coordinates": [29.62002, -2.154683]}, "properties": {"name": "Muremure"}}, {"type": "Feature", "geometry": {"type": "Point", "coordinates": [29.531042, -1.711176]}, "properties": {"name": "Muringa"}}, {"type": "Feature", "geometry": {"type": "Point", "coordinates": [29.3761, -1.9068]}, "properties": {"name": "Murunda"}}, {"type": "Feature", "geometry": {"type": "Point", "coordinates": [29.873386, -1.827742]}, "properties": {"name": "Musagara"}}, {"type": "Feature", "geometry": {"type": "Point", "coordinates": [29.84412, -2.0481]}, "properties": {"name": "Musambira"}}, {"type": "Feature", "geometry": {"type": "Point", "coordinates": [29.650634, -2.0169]}, "properties": {"name": "Musange"}}, {"type": "Feature", "geometry": {"type": "Point", "coordinates": [29.436232, -2.174587]}, "properties": {"name": "Musango"}}, {"type": "Feature", "geometry": {"type": "Point", "coordinates": [29.635739, -1.505945]}, "properties": {"name": "Musanze"}}, {"type": "Feature", "geometry": {"type": "Point", "coordinates": [29.34865, -1.9625]}, "properties": {"name": "Musasa"}}, {"type": "Feature", "geometry": {"type": "Point", "coordinates": [30.158092, -1.926037]}, "properties": {"name": "Musave"}}, {"type": "Feature", "geometry": {"type": "Point", "coordinates": [29.312278, -2.15525]}, "properties": {"name": "Musaza"}}, {"type": "Feature", "geometry": {"type": "Point", "coordinates": [29.44623, -2.42455]}, "properties": {"name": "Musebeya"}}, {"type": "Feature", "geometry": {"type": "Point", "coordinates": [29.977127, -1.557951]}, "properties": {"name": "Musenda"}}, {"type": "Feature", "geometry": {"type": "Point", "coordinates": [29.4866, -2.339787]}, "properties": {"name": "Musenyi"}}, {"type": "Feature", "geometry": {"type": "Point", "coordinates": [30.4054, -1.499694]}, "properties": {"name": "Musenyi (New Beginning)"}}, {"type": "Feature", "geometry": {"type": "Point", "coordinates": [29.673139, -1.565523]}, "properties": {"name": "Musezero"}}, {"type": "Feature", "geometry": {"type": "Point", "coordinates": [30.33207, -1.93105]}, "properties": {"name": "Musha"}}, {"type": "Feature", "geometry": {"type": "Point", "coordinates": [28.95313, -2.637767]}, "properties": {"name": "Mushaka"}}, {"type": "Feature", "geometry": {"type": "Point", "coordinates": [30.67403, -2.190761]}, "properties": {"name": "Mushikiri"}}, {"type": "Feature", "geometry": {"type": "Point", "coordinates": [29.719583, -2.35739]}, "properties": {"name": "Mushirarungu"}}, {"type": "Feature", "geometry": {"type": "Point", "coordinates": [29.701576, -2.001375]}, "properties": {"name": "Mushishiro"}}, {"type": "Feature", "geometry": {"type": "Point", "coordinates": [29.913103, -1.652731]}, "properties": {"name": "Mushongi"}}, {"type": "Feature", "geometry": {"type": "Point", "coordinates": [29.39993, -2.01275]}, "properties": {"name": "Mushubati"}}, {"type": "Feature", "geometry": {"type": "Point", "coordinates": [29.44475, -2.3484]}, "properties": {"name": "Mushubi"}}, {"type": "Feature", "geometry": {"type": "Point", "coordinates": [29.646055, -2.065732]}, "properties": {"name": "Musongati"}}, {"type": "Feature", "geometry": {"type": "Point", "coordinates": [29.469438, -1.680958]}, "properties": {"name": "Mutaho"}}, {"type": "Feature", "geometry": {"type": "Point", "coordinates": [29.497388, -1.887328]}, "properties": {"name": "Mutake"}}, {"type": "Feature", "geometry": {"type": "Point", "coordinates": [29.660294, -1.718098]}, "properties": {"name": "Mutego"}}, {"type": "Feature", "geometry": {"type": "Point", "coordinates": [30.48885, -2.273166]}, "properties": {"name": "Mutenderi"}}, {"type": "Feature", "geometry": {"type": "Point", "coordinates": [29.402563, -2.347279]}, "properties": {"name": "Mutengeri"}}, {"type": "Feature", "geometry": {"type": "Point", "coordinates": [29.23294, -2.390799]}, "properties": {"name": "Mutuntu"}}, {"type": "Feature", "geometry": {"type": "Point", "coordinates": [29.929238, -2.339335]}, "properties": {"name": "Mututu"}}, {"type": "Feature", "geometry": {"type": "Point", "coordinates": [29.895229, -2.527645]}, "properties": {"name": "Muyaga"}}, {"type": "Feature", "geometry": {"type": "Point", "coordinates": [29.800907, -1.922306]}, "properties": {"name": "Muyange"}}, {"type": "Feature", "geometry": {"type": "Point", "coordinates": [30.02855, -1.698467]}, "properties": {"name": "Muyanza"}}, {"type": "Feature", "geometry": {"type": "Point", "coordinates": [29.874531, -1.725366]}, "properties": {"name": "Muyongwe"}}, {"type": "Feature", "geometry": {"type": "Point", "coordinates": [30.25727, -1.974217]}, "properties": {"name": "Muyumbu"}}, {"type": "Feature", "geometry": {"type": "Point", "coordinates": [29.66115, -2.16775]}, "properties": {"name": "Muyunzwe"}}, {"type": "Feature", "geometry": {"type": "Point", "coordinates": [29.79715, -2.624762]}, "properties": {"name": "Muzenga"}}, {"type": "Feature", "geometry": {"type": "Point", "coordinates": [30.250758, -2.248706]}, "properties": {"name": "Mwendo"}}, {"type": "Feature", "geometry": {"type": "Point", "coordinates": [29.688659, -2.163739]}, "properties": {"name": "Mwendo (Ruhango)"}}, {"type": "Feature", "geometry": {"type": "Point", "coordinates": [29.64262, -2.33155]}, "properties": {"name": "Mweya"}}, {"type": "Feature", "geometry": {"type": "Point", "coordinates": [29.03042, -2.52065]}, "properties": {"name": "Mwezi"}}, {"type": "Feature", "geometry": {"type": "Point", "coordinates": [28.981677, -2.401042]}, "properties": {"name": "Mwito"}}, {"type": "Feature", "geometry": {"type": "Point", "coordinates": [29.51175, -1.6564]}, "properties": {"name": "Mwiyanike"}}, {"type": "Feature", "geometry": {"type": "Point", "coordinates": [30.15665, -2.0844]}, "properties": {"name": "Mwogo"}}, {"type": "Feature", "geometry": {"type": "Point", "coordinates": [30.85173, -2.130417]}, "properties": {"name": "Nasho"}}, {"type": "Feature", "geometry": {"type": "Point", "coordinates": [30.061615, -1.956413]}, "properties": {"name": "National Reference Laboratory"}}, {"type": "Feature", "geometry": {"type": "Point", "coordinates": [30.063096, -1.953509]}, "properties": {"name": "Nations Unies"}}, {"type": "Feature", "geometry": {"type": "Point", "coordinates": [30.0621, -1.956565]}, "properties": {"name": "NBTC"}}, {"type": "Feature", "geometry": {"type": "Point", "coordinates": [29.812021, -1.471671]}, "properties": {"name": "Ndago"}}, {"type": "Feature", "geometry": {"type": "Point", "coordinates": [30.469854, -1.412796]}, "properties": {"name": "Ndama"}}, {"type": "Feature", "geometry": {"type": "Point", "coordinates": [29.592514, -2.006951]}, "properties": {"name": "Ndaro"}}, {"type": "Feature", "geometry": {"type": "Point", "coordinates": [30.70225, -2.014133]}, "properties": {"name": "Ndego"}}, {"type": "Feature", "geometry": {"type": "Point", "coordinates": [30.173107, -1.947065]}, "properties": {"name": "Ndera"}}, {"type": "Feature", "geometry": {"type": "Point", "coordinates": [29.842678, -1.545608]}, "properties": {"name": "Ndongozi"}}, {"type": "Feature", "geometry": {"type": "Point", "coordinates": [30.116746, -1.858558]}, "properties": {"name": "Nduba"}}, {"type": "Feature", "geometry": {"type": "Point", "coordinates": [29.7845, -1.63343]}, "properties": {"name": "Nemba"}}, {"type": "Feature", "geometry": {"type": "Point", "coordinates": [29.257324, -2.298961]}, "properties": {"name": "Ngange"}}, {"type": "Feature", "geometry": {"type": "Point", "coordinates": [29.759377, -1.673341]}, "properties": {"name": "Nganzo"}}, {"type": "Feature", "geometry": {"type": "Point", "coordinates": [30.127873, -1.905656]}, "properties": {"name": "Ngara"}}, {"type": "Feature", "geometry": {"type": "Point", "coordinates": [30.2429, -1.546]}, "properties": {"name": "Ngarama"}}, {"type": "Feature", "geometry": {"type": "Point", "coordinates": [29.641025, -2.116028]}, "properties": {"name": "Ngaru"}}, {"type": "Feature", "geometry": {"type": "Point", "coordinates": [30.002238, -2.308903]}, "properties": {"name": "Ngenda"}}, {"type": "Feature", "geometry": {"type": "Point", "coordinates": [29.686756, -2.713564]}, "properties": {"name": "Ngera"}}, {"type": "Feature", "geometry": {"type": "Point", "coordinates": [30.102584, -2.333678]}, "properties": {"name": "Ngeruka"}}, {"type": "Feature", "geometry": {"type": "Point", "coordinates": [30.071011, -1.836507]}, "properties": {"name": "Ngiryi"}}, {"type": "Feature", "geometry": {"type": "Point", "coordinates": [29.696967, -2.743423]}, "properties": {"name": "Ngoma"}}, {"type": "Feature", "geometry": {"type": "Point", "coordinates": [29.633397, -1.850957]}, "properties": {"name": "Ngororero"}}, {"type": "Feature", "geometry": {"type": "Point", "coordinates": [30.11335, -1.9712]}, "properties": {"name": "Niboye"}}, {"type": "Feature", "geometry": {"type": "Point", "coordinates": [29.615099, -2.783561]}, "properties": {"name": "Nkakwa"}}, {"type": "Feature", "geometry": {"type": "Point", "coordinates": [29.509711, -2.800585]}, "properties": {"name": "Nkanda"}}, {"type": "Feature", "geometry": {"type": "Point", "coordinates": [30.420362, -2.21789]}, "properties": {"name": "Nkanga"}}, {"type": "Feature", "geometry": {"type": "Point", "coordinates": [28.928993, -2.426844]}, "properties": {"name": "Nkanka"}}, {"type": "Feature", "geometry": {"type": "Point", "coordinates": [29.746201, -1.455004]}, "properties": {"name": "Nkenke"}}, {"type": "Feature", "geometry": {"type": "Point", "coordinates": [30.2329, -1.318805]}, "properties": {"name": "Nkoma"}}, {"type": "Feature", "geometry": {"type": "Point", "coordinates": [28.89467, -2.405416]}, "properties": {"name": "Nkombo"}}, {"type": "Feature", "geometry": {"type": "Point", "coordinates": [29.699863, -2.273446]}, "properties": {"name": "Nkomero"}}, {"type": "Feature", "geometry": {"type": "Point", "coordinates": [30.149827, -1.764148]}, "properties": {"name": "Nkoto"}}, {"type": "Feature", "geometry": {"type": "Point", "coordinates": [29.718386, -1.465485]}, "properties": {"name": "Nkumba"}}, {"type": "Feature", "geometry": {"type": "Point", "coordinates": [30.443473, -2.047153]}, "properties": {"name": "Nkungu"}}, {"type": "Feature", "geometry": {"type": "Point", "coordinates": [30.337491, -1.263765]}, "properties": {"name": "Nsheke"}}, {"type": "Feature", "geometry": {"type": "Point", "coordinates": [30.037844, -1.943237]}, "properties": {"name": "Nshuti"}}, {"type": "Feature", "geometry": {"type": "Point", "coordinates": [29.61605, -1.899067]}, "properties": {"name": "Ntaganzwa"}}, {"type": "Feature", "geometry": {"type": "Point", "coordinates": [29.030216, -2.30773]}, "properties": {"name": "Ntango"}}, {"type": "Feature", "geometry": {"type": "Point", "coordinates": [30.06554, -2.108735]}, "properties": {"name": "Ntarama"}}, {"type": "Feature", "geometry": {"type": "Point", "coordinates": [29.74788, -1.4761]}, "properties": {"name": "Ntaruka"}}, {"type": "Feature", "geometry": {"type": "Point", "coordinates": [29.976528, -2.090473]}, "properties": {"name": "Nteko"}}, {"type": "Feature", "geometry": {"type": "Point", "coordinates": [29.60186, -1.976411]}, "properties": {"name": "Ntobwe"}}, {"type": "Feature", "geometry": {"type": "Point", "coordinates": [30.38993, -1.136883]}, "properties": {"name": "Ntoma"}}, {"type": "Feature", "geometry": {"type": "Point", "coordinates": [30.299359, -2.158513]}, "properties": {"name": "Ntovi"}}, {"type": "Feature", "geometry": {"type": "Point", "coordinates": [30.363622, -1.953378]}, "properties": {"name": "Ntunga"}}, {"type": "Feature", "geometry": {"type": "Point", "coordinates": [28.961834, -2.449695]}, "properties": {"name": "Ntura"}}, {"type": "Feature", "geometry": {"type": "Point", "coordinates": [29.659056, -1.559295]}, "properties": {"name": "Nturo"}}, {"type": "Feature", "geometry": {"type": "Point", "coordinates": [29.88537, -2.4284]}, "properties": {"name": "Ntyazo"}}, {"type": "Feature", "geometry": {"type": "Point", "coordinates": [30.27456, -1.406032]}, "properties": {"name": "Numerimwe"}}, {"type": "Feature", "geometry": {"type": "Point", "coordinates": [29.743473, -2.616287]}, "properties": {"name": "NUR"}}, {"type": "Feature", "geometry": {"type": "Point", "coordinates": [30.198126, -2.193453]}, "properties": {"name": "Nyabagendwa"}}, {"type": "Feature", "geometry": {"type": "Point", "coordinates": [30.270282, -1.593696]}, "properties": {"name": "Nyabicwamba"}}, {"type": "Feature", "geometry": {"type": "Point", "coordinates": [29.546026, -1.426373]}, "properties": {"name": "Nyabigoma"}}, {"type": "Feature", "geometry": {"type": "Point", "coordinates": [30.259768, -1.595222]}, "properties": {"name": "Nyabiheke Refugee Camp"}}, {"type": "Feature", "geometry": {"type": "Point", "coordinates": [29.521943, -1.590923]}, "properties": {"name": "Nyabihu"}}, {"type": "Feature", "geometry": {"type": "Point", "coordinates": [30.16015, -1.896971]}, "properties": {"name": "Nyabikenke"}}, {"type": "Feature", "geometry": {"type": "Point", "coordinates": [29.44438, -2.689567]}, "properties": {"name": "Nyabimata"}}, {"type": "Feature", "geometry": {"type": "Point", "coordinates": [29.68333, -1.773083]}, "properties": {"name": "Nyabinoni"}}, {"type": "Feature", "geometry": {"type": "Point", "coordinates": [29.67945, -2.3122]}, "properties": {"name": "Nyabinyenga"}}, {"type": "Feature", "geometry": {"type": "Point", "coordinates": [29.34942, -1.76195]}, "properties": {"name": "Nyabirasi"}}, {"type": "Feature", "geometry": {"type": "Point", "coordinates": [30.387542, -1.829606]}, "properties": {"name": "Nyabisindu"}}, {"type": "Feature", "geometry": {"type": "Point", "coordinates": [30.79453, -2.2139]}, "properties": {"name": "Nyabitare"}}, {"type": "Feature", "geometry": {"type": "Point", "coordinates": [30.259558, -1.293324]}, "properties": {"name": "Nyabitekeli"}}, {"type": "Feature", "geometry": {"type": "Point", "coordinates": [29.06988, -2.560099]}, "properties": {"name": "Nyabitimbo"}}, {"type": "Feature", "geometry": {"type": "Point", "coordinates": [29.98422, -1.824955]}, "properties": {"name": "Nyabuko"}}, {"type": "Feature", "geometry": {"type": "Point", "coordinates": [30.08417, -1.86805]}, "properties": {"name": "Nyacyonga"}}, {"type": "Feature", "geometry": {"type": "Point", "coordinates": [30.22053, -1.609667]}, "properties": {"name": "Nyagahanga"}}, {"type": "Feature", "geometry": {"type": "Point", "coordinates": [29.720096, -1.373014]}, "properties": {"name": "Nyagahinga"}}, {"type": "Feature", "geometry": {"type": "Point", "coordinates": [30.20283, -1.486083]}, "properties": {"name": "Nyagahita"}}, {"type": "Feature", "geometry": {"type": "Point", "coordinates": [30.2743, -1.8971]}, "properties": {"name": "Nyagasambu"}}, {"type": "Feature", "geometry": {"type": "Point", "coordinates": [30.435349, -1.441076]}, "properties": {"name": "Nyagashanga"}}, {"type": "Feature", "geometry": {"type": "Point", "coordinates": [30.329836, -1.309485]}, "properties": {"name": "Nyagatare"}}, {"type": "Feature", "geometry": {"type": "Point", "coordinates": [29.86624, -2.09188]}, "properties": {"name": "Nyagihamba"}}, {"type": "Feature", "geometry": {"type": "Point", "coordinates": [30.179058, -1.535525]}, "properties": {"name": "Nyagihanga"}}, {"type": "Feature", "geometry": {"type": "Point", "coordinates": [30.070521, -2.20911]}, "properties": {"name": "Nyagihunika"}}, {"type": "Feature", "geometry": {"type": "Point", "coordinates": [29.8074, -2.069764]}, "properties": {"name": "Nyagishubi"}}, {"type": "Feature", "geometry": {"type": "Point", "coordinates": [29.57342, -1.550132]}, "properties": {"name": "Nyagisozi"}}, {"type": "Feature", "geometry": {"type": "Point", "coordinates": [30.218569, -1.517465]}, "properties": {"name": "Nyagitabire"}}, {"type": "Feature", "geometry": {"type": "Point", "coordinates": [30.046888, -1.968435]}, "properties": {"name": "Nyakabanda"}}, {"type": "Feature", "geometry": {"type": "Point", "coordinates": [30.810717, -2.132332]}, "properties": {"name": "Nyakabungo"}}, {"type": "Feature", "geometry": {"type": "Point", "coordinates": [29.030304, -2.566693]}, "properties": {"name": "Nyakabuye"}}, {"type": "Feature", "geometry": {"type": "Point", "coordinates": [30.257823, -1.447854]}, "properties": {"name": "Nyakagarama"}}, {"type": "Feature", "geometry": {"type": "Point", "coordinates": [30.25408, -2.036166]}, "properties": {"name": "Nyakaliro"}}, {"type": "Feature", "geometry": {"type": "Point", "coordinates": [30.607911, -2.084821]}, "properties": {"name": "Nyakanazi"}}, {"type": "Feature", "geometry": {"type": "Point", "coordinates": [28.915089, -2.540264]}, "properties": {"name": "Nyakarenzo"}}, {"type": "Feature", "geometry": {"type": "Point", "coordinates": [29.9012, -2.586324]}, "properties": {"name": "Nyakibungo"}}, {"type": "Feature", "geometry": {"type": "Point", "coordinates": [30.343218, -1.438345]}, "properties": {"name": "Nyakigando"}}, {"type": "Feature", "geometry": {"type": "Point", "coordinates": [29.63268, -1.6287]}, "properties": {"name": "Nyakigezi"}}, {"type": "Feature", "geometry": {"type": "Point", "coordinates": [29.35915, -1.67313]}, "properties": {"name": "Nyakiliba"}}, {"type": "Feature", "geometry": {"type": "Point", "coordinates": [29.63956, -1.57252]}, "properties": {"name": "Nyakinama"}}, {"type": "Feature", "geometry": {"type": "Point", "coordinates": [29.6089, -1.631367]}, "properties": {"name": "Nyakiriba"}}, {"type": "Feature", "geometry": {"type": "Point", "coordinates": [29.584934, -2.468958]}, "properties": {"name": "Nyamagabe"}}, {"type": "Feature", "geometry": {"type": "Point", "coordinates": [29.089416, -2.341548]}, "properties": {"name": "Nyamasheke"}}, {"type": "Feature", "geometry": {"type": "Point", "coordinates": [30.0799, -2.1384]}, "properties": {"name": "Nyamata"}}, {"type": "Feature", "geometry": {"type": "Point", "coordinates": [30.722933, -2.216731]}, "properties": {"name": "Nyamateke"}}, {"type": "Feature", "geometry": {"type": "Point", "coordinates": [30.441156, -1.624525]}, "properties": {"name": "Nyamatete"}}, {"type": "Feature", "geometry": {"type": "Point", "coordinates": [29.871794, -1.38099]}, "properties": {"name": "Nyamicucu"}}, {"type": "Feature", "geometry": {"type": "Point", "coordinates": [30.048592, -2.25664]}, "properties": {"name": "Nyamigina"}}, {"type": "Feature", "geometry": {"type": "Point", "coordinates": [30.484942, -1.46719]}, "properties": {"name": "Nyamirama"}}, {"type": "Feature", "geometry": {"type": "Point", "coordinates": [29.656882, -1.892435]}, "properties": {"name": "Nyamisa"}}, {"type": "Feature", "geometry": {"type": "Point", "coordinates": [30.139687, -1.682483]}, "properties": {"name": "Nyamiyaga"}}, {"type": "Feature", "geometry": {"type": "Point", "coordinates": [30.389183, -1.111043]}, "properties": {"name": "Nyamiyonga"}}, {"type": "Feature", "geometry": {"type": "Point", "coordinates": [29.866024, -1.570664]}, "properties": {"name": "Nyamugali"}}, {"type": "Feature", "geometry": {"type": "Point", "coordinates": [29.804211, -2.366774]}, "properties": {"name": "Nyamure"}}, {"type": "Feature", "geometry": {"type": "Point", "coordinates": [29.225336, -2.620686]}, "properties": {"name": "Nyamuzi"}}, {"type": "Feature", "geometry": {"type": "Point", "coordinates": [29.55563, -2.58335]}, "properties": {"name": "Nyamyumba"}}, {"type": "Feature", "geometry": {"type": "Point", "coordinates": [29.79073, -1.801067]}, "properties": {"name": "Nyange"}}, {"type": "Feature", "geometry": {"type": "Point", "coordinates": [29.64633, -1.835933]}, "properties": {"name": "Nyange I"}}, {"type": "Feature", "geometry": {"type": "Point", "coordinates": [29.59613, -2.053367]}, "properties": {"name": "Nyange II"}}, {"type": "Feature", "geometry": {"type": "Point", "coordinates": [29.689656, -1.42707]}, "properties": {"name": "Nyangwe"}}, {"type": "Feature", "geometry": {"type": "Point", "coordinates": [30.776794, -2.382046]}, "properties": {"name": "Nyankurazo"}}, {"type": "Feature", "geometry": {"type": "Point", "coordinates": [29.65302, -2.7285]}, "properties": {"name": "Nyantanga"}}, {"type": "Feature", "geometry": {"type": "Point", "coordinates": [29.74918, -2.358382]}, "properties": {"name": "Nyanza"}}, {"type": "Feature", "geometry": {"type": "Point", "coordinates": [29.830745, -2.08608]}, "properties": {"name": "Nyarubaka"}}, {"type": "Feature", "geometry": {"type": "Point", "coordinates": [29.565365, -1.485272]}, "properties": {"name": "Nyarubuye"}}, {"type": "Feature", "geometry": {"type": "Point", "coordinates": [30.048091, -1.981742]}, "properties": {"name": "Nyarugenge"}}, {"type": "Feature", "geometry": {"type": "Point", "coordinates": [30.160651, -1.972725]}, "properties": {"name": "Nyarugunga"}}, {"type": "Feature", "geometry": {"type": "Point", "coordinates": [29.535742, -2.713564]}, "properties": {"name": "Nyaruguru"}}, {"type": "Feature", "geometry": {"type": "Point", "coordinates": [30.066371, -2.017127]}, "properties": {"name": "Nyarurama"}}, {"type": "Feature", "geometry": {"type": "Point", "coordinates": [30.168377, -1.410829]}, "properties": {"name": "Nyarurema"}}, {"type": "Feature", "geometry": {"type": "Point", "coordinates": [29.304736, -1.69141]}, "properties": {"name": "Nyarurembo"}}, {"type": "Feature", "geometry": {"type": "Point", "coordinates": [30.051788, -2.050483]}, "properties": {"name": "Nyarurenzi"}}, {"type": "Feature", "geometry": {"type": "Point", "coordinates": [29.689177, -2.349406]}, "properties": {"name": "Nyarusange"}}, {"type": "Feature", "geometry": {"type": "Point", "coordinates": [29.29032, -2.282905]}, "properties": {"name": "Nyarusiza"}}, {"type": "Feature", "geometry": {"type": "Point", "coordinates": [30.591256, -2.144293]}, "properties": {"name": "Nyaruvumu"}}, {"type": "Feature", "geometry": {"type": "Point", "coordinates": [29.40862, -2.296283]}, "properties": {"name": "Nyarwungo"}}, {"type": "Feature", "geometry": {"type": "Point", "coordinates": [30.403831, -1.204385]}, "properties": {"name": "Nyendo"}}, {"type": "Feature", "geometry": {"type": "Point", "coordinates": [30.62077, -2.16796]}, "properties": {"name": "Nyinya"}}, {"type": "Feature", "geometry": {"type": "Point", "coordinates": [30.050563, -1.571264]}, "properties": {"name": "Nyiragasuruba"}}, {"type": "Feature", "geometry": {"type": "Point", "coordinates": [29.333239, -1.702734]}, "properties": {"name": "Nyundo"}}, {"type": "Feature", "geometry": {"type": "Point", "coordinates": [30.26522, -2.33945]}, "properties": {"name": "Nzangwa"}}, {"type": "Feature", "geometry": {"type": "Point", "coordinates": [29.54449, -2.122605]}, "properties": {"name": "Nzaratsi"}}, {"type": "Feature", "geometry": {"type": "Point", "coordinates": [30.33705, -2.026233]}, "properties": {"name": "Nzige"}}, {"type": "Feature", "geometry": {"type": "Point", "coordinates": [30.12419, -1.962653]}, "properties": {"name": "Nziza"}}, {"type": "Feature", "geometry": {"type": "Point", "coordinates": [30.00158, -1.941288]}, "properties": {"name": "Nzove"}}, {"type": "Feature", "geometry": {"type": "Point", "coordinates": [30.127871, -1.947109]}, "properties": {"name": "Omega"}}, {"type": "Feature", "geometry": {"type": "Point", "coordinates": [30.060303, -1.963293]}, "properties": {"name": "Onatracom"}}, {"type": "Feature", "geometry": {"type": "Point", "coordinates": [30.054052, -1.944078]}, "properties": {"name": "Pck"}}, {"type": "Feature", "geometry": {"type": "Point", "coordinates": [30.067046, -1.946354]}, "properties": {"name": "Pineda Dental"}}, {"type": "Feature", "geometry": {"type": "Point", "coordinates": [30.061414, -1.951841]}, "properties": {"name": "Plateau"}}, {"type": "Feature", "geometry": {"type": "Point", "coordinates": [29.73028, -2.599162]}, "properties": {"name": "Police Huye"}}, {"type": "Feature", "geometry": {"type": "Point", "coordinates": [30.05905, -1.939521]}, "properties": {"name": "Poly Du Bon Berger"}}, {"type": "Feature", "geometry": {"type": "Point", "coordinates": [30.061281, -1.941636]}, "properties": {"name": "Poly La Biomed"}}, {"type": "Feature", "geometry": {"type": "Point", "coordinates": [30.060465, -1.959169]}, "properties": {"name": "Poly Med Naroda"}}, {"type": "Feature", "geometry": {"type": "Point", "coordinates": [30.111448, -1.960531]}, "properties": {"name": "Polyfame"}}, {"type": "Feature", "geometry": {"type": "Point", "coordinates": [30.054208, -1.938676]}, "properties": {"name": "Polyique Medico Sociale"}}, {"type": "Feature", "geometry": {"type": "Point", "coordinates": [29.5781, -2.4617]}, "properties": {"name": "Prison Gikongoro"}}, {"type": "Feature", "geometry": {"type": "Point", "coordinates": [29.36695, -1.67087]}, "properties": {"name": "Prison Gisenyi"}}, {"type": "Feature", "geometry": {"type": "Point", "coordinates": [29.764, -2.0803]}, "properties": {"name": "Prison Gitarama"}}, {"type": "Feature", "geometry": {"type": "Point", "coordinates": [29.740199, -2.590913]}, "properties": {"name": "Prison Karubanda"}}, {"type": "Feature", "geometry": {"type": "Point", "coordinates": [30.5412, -2.1631]}, "properties": {"name": "Prison Kibungo"}}, {"type": "Feature", "geometry": {"type": "Point", "coordinates": [30.1313, -1.9392]}, "properties": {"name": "Prison Kimironko"}}, {"type": "Feature", "geometry": {"type": "Point", "coordinates": [30.005773, -1.614436]}, "properties": {"name": "Prison Miyove"}}, {"type": "Feature", "geometry": {"type": "Point", "coordinates": [29.7178, -2.3022]}, "properties": {"name": "Prison Mpanga"}}, {"type": "Feature", "geometry": {"type": "Point", "coordinates": [30.4517, -1.9229]}, "properties": {"name": "Prison Nsinda"}}, {"type": "Feature", "geometry": {"type": "Point", "coordinates": [30.35587, -1.287074]}, "properties": {"name": "Prison Nyagatare"}}, {"type": "Feature", "geometry": {"type": "Point", "coordinates": [29.7529, -2.353]}, "properties": {"name": "Prison Nyanza"}}, {"type": "Feature", "geometry": {"type": "Point", "coordinates": [30.2239, -2.17997]}, "properties": {"name": "Prison Rilima"}}, {"type": "Feature", "geometry": {"type": "Point", "coordinates": [29.6346, -1.5068]}, "properties": {"name": "Prison Ruhengeri"}}, {"type": "Feature", "geometry": {"type": "Point", "coordinates": [28.898971, -2.489526]}, "properties": {"name": "Prison Rusizi"}}, {"type": "Feature", "geometry": {"type": "Point", "coordinates": [30.061469, -1.952411]}, "properties": {"name": "Project San Francio Prive"}}, {"type": "Feature", "geometry": {"type": "Point", "coordinates": [30.092877, -1.947825]}, "properties": {"name": "PSI/Rwanda"}}, {"type": "Feature", "geometry": {"type": "Point", "coordinates": [29.816281, -1.712548]}, "properties": {"name": "Raba"}}, {"type": "Feature", "geometry": {"type": "Point", "coordinates": [29.5295, -1.876083]}, "properties": {"name": "Ramba"}}, {"type": "Feature", "geometry": {"type": "Point", "coordinates": [29.52083, -1.679533]}, "properties": {"name": "Rambura"}}, {"type": "Feature", "geometry": {"type": "Point", "coordinates": [30.218646, -2.250325]}, "properties": {"name": "Ramiro"}}, {"type": "Feature", "geometry": {"type": "Point", "coordinates": [30.078862, -1.918358]}, "properties": {"name": "Ramuka"}}, {"type": "Feature", "geometry": {"type": "Point", "coordinates": [29.1664, -2.4072]}, "properties": {"name": "Rangiro"}}, {"type": "Feature", "geometry": {"type": "Point", "coordinates": [30.041733, -2.281286]}, "properties": {"name": "Rango"}}, {"type": "Feature", "geometry": {"type": "Point", "coordinates": [29.17359, -2.591358]}, "properties": {"name": "Rasano"}},